,global_id,Number,global_id,TypeObject,NameOwner,OnTerritoryOfMoscow,AdmArea,District,Location,Longitude_WGS84,Latitude_WGS84,base_station_id,operator
0,1031191969,1,1031191969,здание/сооружение,Государственное бюджетное учреждение культуры города Москвы «Московский драматический театр имени А.С.Пушкина»,да,Центральный административный округ,Таганский район,"Российская Федерация, город Москва, внутригородская территория муниципальный округ Пресненский, Тверской бульвар, дом 23, строение 1",37.601339,55.762234,1096,ПАО «МегаФон»
1,1031191971,2,1031191971,здание/сооружение,Государственное бюджетное учреждение здравоохранения города Москвы «городская клиническая больница имени И.В.Давыдовского Департамента здравоохранения города Москвы»,да,Центральный административный округ,Пресненский район,"Российская Федерация, город Москва, внутригородская территория муниципальный округ Таганский, Яузская улица, дом 11/6, строение 3",37.648514,55.746025,13046,ПАО «ВымпелКом»
2,1031191972,3,1031191972,здание/сооружение,Государственное бюджетное учреждение здравоохранения города Москвы «городская клиническая больница имени И.В.Давыдовского Департамента здравоохранения города Москвы»,да,Центральный административный округ,Таганский район,"Российская Федерация, город Москва, внутригородская территория муниципальный округ Таганский, Яузская улица, дом 12",37.647756,55.746142,13048,ПАО «ВымпелКом»
3,1031191974,4,1031191974,здание/сооружение,Государственное бюджетное учреждение города Москвы «Московское городское физкультурно-спортивное объединение» Департамента спорта города Москвы,да,Центральный административный округ,Таганский район,"Российская Федерация, город Москва, внутригородская территория муниципальный округ Хамовники, 3-я Фрунзенская улица, дом 5",37.578810,55.720028,5204,ПАО «Мобильные ТелеСистемы»
4,1031191975,5,1031191975,здание/сооружение,Государственное бюджетное учреждение здравоохранения города Москвы «Психиатрическая клиническая больница № 13 Департамента здравоохранения города Москвы» Филиал № 1,да,Центральный административный округ,Красносельский район,"Российская Федерация, город Москва, внутригородская территория муниципальный округ Таганский, Средняя Калитниковская улица, дом 29, строение 1",37.68932,55.73523,MS2167,ООО «Т2 Мобайл»
5,1031191976,6,1031191976,здание/сооружение,Государственное бюджетное учреждение культуры города Москвы «Московский государственный академический театр оперетты»,да,Центральный административный округ,район Хамовники,"Российская Федерация, город Москва, внутригородская территория муниципальный округ Тверской, улица Большая Дмитровка, дом 6",37.615953,55.760069,MS1419,ООО «Т2 Мобайл»
6,1031191977,7,1031191977,здание/сооружение,Департамент строительства города Москвы,да,Центральный административный округ,Таганский район,"Российская Федерация, город Москва, внутригородская территория муниципальный округ Тверской, улица Большая Дмитровка, дом 16, строение 2",37.614553,55.762291,MS0639,ООО «Т2 Мобайл»
7,1031191979,8,1031191979,здание/сооружение,Государственное унитарное предприятие города Москвы «Московское имущество»,да,Центральный административный округ,Тверской район,"Российская Федерация, город Москва, внутригородская территория муниципальный округ Пресненский, Большой Палашёвский переулок, дом 10",37.598716,55.764042,MS2622,ООО «Т2 Мобайл»
8,1031191980,9,1031191980,здание/сооружение,Государственное автономное образовательное учреждение высшего образования города Москвы «Московский институт открытого образования»,да,Центральный административный округ,Тверской район,"Российская Федерация, город Москва, внутригородская территория муниципальный округ Замоскворечье, 1-й Новокузнецкий переулок, дом 5-7",37.632246,55.734761,MS0019,ООО «Т2 Мобайл»
9,1031191981,10,1031191981,здание/сооружение,Государственное автономное учреждение города Москвы «Московская государственная экспертиза»,да,Центральный административный округ,Пресненский район,"Российская Федерация, город Москва, внутригородская территория муниципальный округ Тверской, 2-я Брестская улица, дом 8",37.590926,55.771215,MS5092,ООО «Т2 Мобайл»
10,1031191983,11,1031191983,здание/сооружение,Государственное бюджетное учреждение культуры города Москвы «Москонцерт»,да,Центральный административный округ,Тверской район,"Российская Федерация, город Москва, внутригородская территория муниципальный округ Красносельский, Каланчёвская улица, дом 33",37.648976,55.776152,413,ПАО «ВымпелКом»
11,1031191984,12,1031191984,здание/сооружение,Государственное бюджетное учреждение здравоохранения города Москвы «Детская городская поликлиника № 112 Департамента здравоохранения города Москвы»,да,Центральный административный округ,Мещанский район,"город Москва, Большая Бронная улица, дом 3",37.5974,55.7605,4009,ПАО «ВымпелКом»
12,1031191985,13,1031191985,здание/сооружение,Государственное бюджетное учреждение культуры города Москвы «Московский музыкальный театр «Геликон-опера»,да,Центральный административный округ,Красносельский район,"город Москва, Большая Никитская улица, дом 19/16, строение 1",37.600846,55.757009,MS2366,ООО «Т2 Мобайл»
13,1031191987,14,1031191987,здание/сооружение,Государственное бюджетное учреждение здравоохранения города Москвы «Детская городская поликлиника № 104 Департамента здравоохранения города Москвы» Филиал № 2,да,Центральный административный округ,Пресненский район,"Российская Федерация, город Москва, внутригородская территория муниципальный округ Таганский, Новорогожская улица, дом 34, строение 1",37.690273,55.738845,MS2617,ООО «Т2 Мобайл»
14,1031191988,15,1031191988,здание/сооружение,Государственное бюджетное учреждение здравоохранения «городская поликлиника № 220 Департамента здравоохранения города Москвы» Филиал № 1,да,Центральный административный округ,Пресненский район,"Российская Федерация, город Москва, внутригородская территория муниципальный округ Пресненский, Шмитовский проезд, дом 25, строение 1",37.542743,55.756224,MS1122,ООО «Т2 Мобайл»
15,1031191989,16,1031191989,здание/сооружение,Государственное бюджетное учреждение здравоохранения города Москвы «городская поликлиника № 220 Департамента здравоохранения города Москвы»,да,Центральный административный округ,Таганский район,"Российская Федерация, город Москва, внутригородская территория муниципальный округ Пресненский, улица Заморёнова, дом 27",37.567138,55.760435,65,ПАО «ВымпелКом»
16,1031191990,17,1031191990,здание/сооружение,Государственное унитарное предприятие города Москвы «Московский ордена Ленина и ордена Трудового Красного Знамени метрополитен имени В.И.Ленина»,да,Центральный административный округ,Пресненский район,"Российская Федерация, город Москва, внутригородская территория муниципальный округ Красносельский, Краснопрудная улица, дом 9А",37.65929,55.78185,1105,ПАО «Мобильные ТелеСистемы»
17,1031191991,18,1031191991,здание/сооружение,Государственное бюджетное учреждение города Москвы «Управление спортивными объектами» Департамента спорта города Москвы,да,Центральный административный округ,Пресненский район,"Российская Федерация, город Москва, внутригородская территория муниципальный округ Таганский, Рабочая улица, дом 30, строение 3",37.684164,55.742463,0,0
18,1031191992,19,1031191992,здание/сооружение,Государственное бюджетное учреждение города Москвы «Жилищник Пресненского района»,да,Центральный административный округ,Красносельский район,"Российская Федерация, город Москва, внутригородская территория муниципальный округ Пресненский, улица Антонова-Овсеенко, дом 4",37.54012,55.753443,180,ПАО «Мобильные ТелеСистемы»
19,1031191993,20,1031191993,здание/сооружение,Государственное бюджетное учреждение города Москвы «Жилищник Таганского района»,да,Центральный административный округ,район Замоскворечье,"Российская Федерация, город Москва, внутригородская территория муниципальный округ Таганский, Международная улица, дом 25",37.69100525,55.74131316,3049,ПАО «МегаФон»
20,1031191994,21,1031191994,здание/сооружение,Государственное бюджетное учреждение города Москвы «Управление спортивными объектами» Департамента спорта города Москвы,да,Центральный административный округ,Таганский район,"Российская Федерация, город Москва, внутригородская территория муниципальный округ Таганский, Рабочая улица, дом 30, строение 3",37.684164,55.742463,10060,ПАО «Мобильные ТелеСистемы»
21,1031191995,22,1031191995,здание/сооружение,Государственное бюджетное учреждение города Москвы «Жилищник Пресненского района»,да,Центральный административный округ,Таганский район,"Российская Федерация, город Москва, внутригородская территория муниципальный округ Пресненский, улица Подвойского, владение 5-19, сооружение 1",37.535718,55.761344,12231,ПАО «Мобильные ТелеСистемы»
22,1031191996,23,1031191996,здание/сооружение,Государственное бюджетное учреждение города Москвы «Жилищник Пресненского района»,да,Центральный административный округ,Таганский район,"Российская Федерация, город Москва, внутригородская территория муниципальный округ Пресненский, улица Подвойского, владение 5-19, сооружение 1",37.535673,55.761264,2656,ПАО «МегаФон»
23,1031191997,24,1031191997,здание/сооружение,Государственное бюджетное учреждение города Москвы «Жилищник Пресненского района»,да,Центральный административный округ,Пресненский район,"Российская Федерация, город Москва, внутригородская территория муниципальный округ Пресненский, улица Подвойского, владение 5-19, сооружение 1",37.535378,55.760811,13648,ПАО «ВымпелКом»
24,1031191998,25,1031191998,здание/сооружение,Государственное бюджетное учреждение города Москвы «Агентство инноваций города Москвы»,да,Центральный административный округ,Пресненский район,"Российская Федерация, город Москва, внутригородская территория муниципальный округ Басманный, улица Покровка, дом 47",37.65398026,55.7636528,1532,ПАО «Мобильные ТелеСистемы»
25,1031192001,26,1031192001,здание/сооружение,Государственное унитарное предприятие города Москвы «Мосремонт»,да,Центральный административный округ,Тверской район,"Российская Федерация, город Москва, внутригородская территория муниципальный округ Тверской, Петровский бульвар, дом 3, строение 2",37.614081,55.768468,1561,ПАО «Мобильные ТелеСистемы»
26,1031192002,27,1031192002,здание/сооружение,Государственное унитарное предприятие города Москвы «Мосремонт»,да,Центральный административный округ,район Хамовники,"Российская Федерация, город Москва, внутригородская территория муниципальный округ Тверской, Петровский бульвар, дом 3, строение 2",37.614024,55.768415,MS5431,ООО «Т2 Мобайл»
27,1031192003,28,1031192003,здание/сооружение,Государственное унитарное предприятие города Москвы «Специальное предприятие при Правительстве Москвы»,да,Центральный административный округ,район Якиманка,"Российская Федерация, город Москва, внутригородская территория муниципальный округ Тверской, улица Варварка, домовладение 6, строение 1",37.627077,55.751482,14443,ПАО «Мобильные ТелеСистемы»
28,1031192004,29,1031192004,здание/сооружение,Государственное бюджетное учреждение культуры города Москвы «Московский концертный зал «Зарядье»,да,Центральный административный округ,Тверской район,"город Москва, улица Варварка, домовладение 6, строение 4",37.630579,55.750800,14443,ПАО «Мобильные ТелеСистемы»
29,1031192005,30,1031192005,здание/сооружение,Департамент городского имущества города Москвы,да,Центральный административный округ,Тверской район,"Российская Федерация, город Москва, внутригородская территория муниципальный округ Тверской, Долгоруковская улица, дом 30",37.604928,55.776916,17374,ПАО «Мобильные ТелеСистемы»
30,1031192006,31,1031192006,здание/сооружение,Департамент города Москвы по конкурентной политике,да,Центральный административный округ,Тверской район,"Российская Федерация, город Москва, внутригородская территория муниципальный округ Мещанский, Печатников переулок, дом 12",37.627138,55.767286,10046,ПАО «Мобильные ТелеСистемы»
31,1031192007,32,1031192007,здание/сооружение,Государственное бюджетное учреждение здравоохранения города Москвы «Детская инфекционная клиническая больница № 6 Департамента здравоохранения города Москвы»,да,Центральный административный округ,Тверской район,"город Москва, 3-й Лихачёвский переулок, дом 2Б, строение 1",37.51761,55.84775,MS2793,ООО «Т2 Мобайл»
32,1031192011,33,1031192011,здание/сооружение,Государственное бюджетное учреждение здравоохранения города Москвы «городская клиническая больница № 24 Департамента здравоохранения города Москвы»,да,Северный административный округ,Головинский район,"Российская Федерация, город Москва, внутригородская территория муниципальный округ Савеловский, 4-й Вятский переулок, дом 39",37.56925,55.79991,MS0288,ООО «Т2 Мобайл»
33,1031192013,34,1031192013,здание/сооружение,Государственное бюджетное учреждение здравоохранения города Москвы «городская клиническая больница имени С.И.Спасокукоцкого Департамента здравоохранения города Москвы»,да,Северо-Восточный административный округ,район Ростокино,"Российская Федерация, город Москва, внутригородская территория муниципальный округ Тимирязевский, улица Вучетича, дом 21, строение 6",37.55455,55.81196,MS0294,ООО «Т2 Мобайл»
34,1031192014,35,1031192014,здание/сооружение,Государственное бюджетное профессиональное образовательное учреждение города Москвы «Колледж сферы услуг № 10»,да,Северный административный округ,район Беговой,"Российская Федерация, город Москва, внутригородская территория муниципальный округ Сокол, улица Панфилова, дом 6",37.497872,55.802295,4005,ПАО «Мобильные ТелеСистемы»
35,1031192015,36,1031192015,здание/сооружение,Государственное бюджетное учреждение здравоохранения города Москвы «городская поликлиника № 45 Департамента здравоохранения города Москвы» Филиал № 1,да,Северный административный округ,Войковский район,"Российская Федерация, город Москва, внутригородская территория муниципальный округ Головинский, Пулковская улица, дом 8, строение 1",37.488538,55.845158,3775,ПАО «Мобильные ТелеСистемы»
36,1031192016,37,1031192016,здание/сооружение,Государственное бюджетное профессиональное образовательное учреждение города Москвы «Технический пожарно-спасательный колледж имени Героя Российской Федерации В.М.Максимчука»,да,Северный административный округ,район Коптево,"Российская Федерация, город Москва, внутригородская территория муниципальный округ Сокол, Светлый проезд, дом 2А",37.490331,55.812107,2504,ПАО «МегаФон»
37,1031192020,38,1031192020,здание/сооружение,Государственное бюджетное учреждение здравоохранения города Москвы «Морозовская детская городская клиническая больница Департамента здравоохранения города Москвы»,да,Центральный административный округ,район Замоскворечье,"Российская Федерация, город Москва, внутригородская территория муниципальный округ Замоскворечье, 4-й Добрынинский переулок, дом 1/9, строение 1",37.61715,55.72425,MS4505,ООО «Т2 Мобайл»
38,1031192022,39,1031192022,здание/сооружение,Департамент труда и социальной защиты населения города Москвы,да,Центральный административный округ,Басманный район,"Российская Федерация, город Москва, внутригородская территория муниципальный округ Басманный, Новая Басманная улица, дом 10, строение 1",37.65645,55.769256,951,ПАО «МегаФон»
39,1031192036,40,1031192036,здание/сооружение,"Государственное автономное учреждение здравоохранения города Москвы «Московский научно-практический центр медицинской реабилитации, восстановительной и спортивной медицины Департамента здравоохранения города Москвы»",да,Центральный административный округ,Басманный район,"Российская Федерация, город Москва, внутригородская территория муниципальный округ Басманный, Бауманская улица, дом 70, строение 2",37.678541,55.765101,6701,ПАО «МегаФон»
40,1031192037,41,1031192037,здание/сооружение,Государственное бюджетное профессиональное образовательное учреждение города Москвы «Колледж связи № 54» имени П.М.Вострухина,да,Центральный административный округ,Таганский район,"Российская Федерация, город Москва, внутригородская территория муниципальный округ Таганский, улица Большие Каменщики, дом 7",37.654996,55.738769,2858,ПАО «Мобильные ТелеСистемы»
41,1031192038,42,1031192038,здание/сооружение,Государственное бюджетное учреждение здравоохранения города Москвы «городская поликлиника № 3 Департамента здравоохранения города Москвы» Филиал № 1,да,Центральный административный округ,Пресненский район,"город Москва, Большая Бронная улица, дом 3",37.597575,55.760537,1549,ПАО «МегаФон»
42,1031192042,43,1031192042,здание/сооружение,Государственное бюджетное профессиональное образовательное учреждение города Москвы «Колледж сферы услуг № 3»,да,Центральный административный округ,Таганский район,"Российская Федерация, город Москва, внутригородская территория муниципальный округ Таганский, Большая Калитниковская улица, дом 34/3, строение 1",37.68417,55.73683,MS2628,ООО «Т2 Мобайл»
43,1031192044,44,1031192044,здание/сооружение,Государственное бюджетное учреждение по эксплуатации высотных административных и жилых домов,да,Центральный административный округ,район Якиманка,"Российская Федерация, город Москва, внутригородская территория муниципальный округ Якиманка, улица Серафимовича, дом 2",37.61064,55.74449,MS5449,ООО «Т2 Мобайл»
44,1031192045,45,1031192045,здание/сооружение,Государственное бюджетное учреждение здравоохранения города Москвы «городская поликлиника № 3 Департамента здравоохранения города Москвы» Филиал № 2,да,Центральный административный округ,Тверской район,"Российская Федерация, город Москва, внутригородская территория муниципальный округ Тверской, Горлов тупик, дом 4",37.59262,55.78589,MS5452,ООО «Т2 Мобайл»
45,1031192046,46,1031192046,здание/сооружение,Государственное бюджетное учреждение здравоохранения города Москвы «городская клиническая больница № 1 им. Н.И.Пирогова Департамента здравоохранения города Москвы»,да,Центральный административный округ,район Якиманка,"Российская Федерация, город Москва, внутригородская территория муниципальный округ Якиманка, Ленинский проспект, дом 8, корпус 23",37.6013,55.72467,MS4552,ООО «Т2 Мобайл»
46,1031192047,47,1031192047,здание/сооружение,Государственное бюджетное учреждение здравоохранения города Москвы «городская поликлиника № 68 Департамента здравоохранения города Москвы»,да,Центральный административный округ,район Якиманка,"Российская Федерация, город Москва, внутригородская территория муниципальный округ Якиманка, улица Малая Якиманка, дом 22, строение 1",37.61639,55.73792,MS2639,ООО «Т2 Мобайл»
47,1031192048,48,1031192048,здание/сооружение,Государственное бюджетное учреждение здравоохранения города Москвы «городская поликлиника № 68 Департамента здравоохранения города Москвы» Филиал № 2,да,Центральный административный округ,район Хамовники,"Российская Федерация, город Москва, внутригородская территория муниципальный округ Хамовники, улица Плющиха, дом 42, строение 1",37.57513,55.74072,MS2230,ООО «Т2 Мобайл»
48,1031192049,49,1031192049,здание/сооружение,Государственное бюджетное профессиональное образовательное учреждение города Москвы «Театральный художественно-технический колледж»,да,Центральный административный округ,Басманный район,"Российская Федерация, город Москва, внутригородская территория муниципальный округ Басманный, улица Радио, дом 6/4, строение 1",37.67274,55.7632,MS2505,ООО «Т2 Мобайл»
49,1031192050,50,1031192050,здание/сооружение,Государственное бюджетное учреждение здравоохранения города Москвы «городская поликлиника № 5 Департамента здравоохранения города Москвы»,да,Центральный административный округ,Красносельский район,"Российская Федерация, город Москва, внутригородская территория муниципальный округ Красносельский, Даев переулок, дом 3, строение 1",37.634335,55.770782,1007,ПАО «МегаФон»
50,1031192052,51,1031192052,здание/сооружение,Государственное бюджетное учреждение здравоохранения города Москвы «городская поликлиника № 5 Департамента здравоохранения города Москвы»,да,Центральный административный округ,Красносельский район,"Российская Федерация, город Москва, внутригородская территория муниципальный округ Красносельский, Даев переулок, дом 3, строение 1",37.634335,55.770782,MS7163,ООО «Т2 Мобайл»
51,1031192053,52,1031192053,здание/сооружение,Государственное бюджетное учреждение культуры города Москвы «Московский академический Музыкальный театр имени народных артистов К.С.Станиславского и Вл.И.Немировича-Данченко»,да,Центральный административный округ,Тверской район,"Российская Федерация, город Москва, внутригородская территория муниципальный округ Тверской, улица Большая Дмитровка, дом 17",37.610576,55.764675,1411,ПАО «МегаФон»
52,1031192056,53,1031192056,здание/сооружение,Государственное бюджетное учреждение здравоохранения города Москвы «городская поликлиника №46 Департамента здравоохранения города Москвы» Филиал № 2,да,Центральный административный округ,Таганский район,"город Москва, Иерусалимская улица, дом 4, строение 1",37.675967,55.732876,6640,ПАО «МегаФон»
53,1031192057,54,1031192057,здание/сооружение,Государственная городская инспекция по контролю за использованием объектов нежилого фонда города Москвы,да,Центральный административный округ,Басманный район,"Российская Федерация, город Москва, внутригородская территория муниципальный округ Басманный, Лубянский проезд, дом 3/6, строение 6",37.630114,55.759302,MS2473,ООО «Т2 Мобайл»
54,1031192059,55,1031192059,здание/сооружение,Государственное бюджетное профессиональное образовательное учреждение города Москвы «Колледж железнодорожного и городского транспорта»,да,Центральный административный округ,Красносельский район,"Российская Федерация, город Москва, внутригородская территория муниципальный округ Красносельский, Каланчёвская улица, дом 26, строение 1",37.64785,55.778687,1929,ПАО «МегаФон»
55,1031192060,56,1031192060,здание/сооружение,Государственное бюджетное учреждение культуры города Москвы «Москонцерт»,да,Центральный административный округ,Красносельский район,"Российская Федерация, город Москва, внутригородская территория муниципальный округ Красносельский, Каланчёвская улица, дом 33",37.649025,55.776058,60273,ПАО «МегаФон»
56,1031192063,57,1031192063,здание/сооружение,Государственное автономное учреждение культуры города Москвы «Московский городской сад «Эрмитаж»,да,Центральный административный округ,Тверской район,"город Москва, улица Каретный Ряд, дом 3, строение 7",37.608974,55.770282,1061,ПАО «МегаФон»
57,1031192064,58,1031192064,здание/сооружение,Государственное бюджетное учреждение культуры города Москвы «Московское театрально-концертное музыкальное объединение под руководством А. Градского»,да,Центральный административный округ,район Замоскворечье,"Российская Федерация, город Москва, внутригородская территория муниципальный округ Замоскворечье, улица Коровий Вал, дом 3, строение 1",37.621172,55.729083,3913,ПАО «МегаФон»
58,1031192067,59,1031192067,здание/сооружение,Государственное автономное учреждение культуры города Москвы «Центральный парк культуры и отдыха имени М.Горького»,да,Центральный административный округ,район Якиманка,"Российская Федерация, город Москва, внутригородская территория муниципальный округ Якиманка, улица Крымский Вал, дом 9, строение 25",37.59779,55.72747,MS0824,ООО «Т2 Мобайл»
59,1031192068,60,1031192068,здание/сооружение,Государственное автономное учреждение культуры города Москвы «Центральный парк культуры и отдыха имени М.Горького»,да,Центральный административный округ,район Якиманка,"Российская Федерация, город Москва, внутригородская территория муниципальный округ Якиманка, улица Крымский Вал, дом 9, строение 1",37.604637,55.731353,6154,ПАО «МегаФон»
60,1031192071,61,1031192071,здание/сооружение,Государственное автономное учреждение культуры города Москвы «Центральный парк культуры и отдыха имени М.Горького»,да,Центральный административный округ,район Якиманка,"Российская Федерация, город Москва, внутригородская территория муниципальный округ Якиманка, улица Крымский Вал, дом 9, строение 29",37.584308,55.71449,1325,ПАО «МегаФон»
61,1031192073,62,1031192073,здание/сооружение,Государственное унитарное предприятие города Москвы «Медицинский центр Управления делами Мэра и Правительства Москвы»,да,Центральный административный округ,Пресненский район,"Российская Федерация, город Москва, внутригородская территория муниципальный округ Басманный, улица Маросейка, дом 7/8, строение 1",37.633295,55.757663,29,ПАО «Мобильные ТелеСистемы»
62,1031192076,63,1031192076,здание/сооружение,Государственное бюджетное учреждение здравоохранения города Москвы «Детская городская клиническая больница имени Н.Ф.Филатова Департамента здравоохранения города Москвы»,да,Центральный административный округ,Тверской район,"город Москва, Садовая-Кудринская улица, дом 15, строение 6",37.5844,55.76512,MS4190,ООО «Т2 Мобайл»
63,1031192077,64,1031192077,здание/сооружение,Государственное бюджетное учреждение здравоохранения города Москвы «Детский санаторий № 45 для детей с гастроэнтерологической патологией Департамента здравоохранения города Москвы»,да,Центральный административный округ,Пресненский район,"Российская Федерация, город Москва, внутригородская территория муниципальный округ Таганский, Большой Дровяной переулок, дом 12А",37.65863,55.74452,MS2528,ООО «Т2 Мобайл»
64,1031192079,65,1031192079,здание/сооружение,Государственное бюджетное учреждение здравоохранения города Москвы «городская поликлиника № 5 Департамента здравоохранения города Москвы»,да,Центральный административный округ,Таганский район,"Российская Федерация, город Москва, внутригородская территория муниципальный округ Красносельский, Верхняя Красносельская улица, дом 21, строение 1",37.66502,55.7809,MS5392,ООО «Т2 Мобайл»
65,1031192080,66,1031192080,здание/сооружение,Государственное бюджетное учреждение города Москвы «Дирекция развития объектов здравоохранения города Москвы»,да,Центральный административный округ,Красносельский район,"Российская Федерация, город Москва, внутригородская территория муниципальный округ Замоскворечье, 1-й Щипковский переулок, дом 19/1, строение 1",37.63005,55.72441,MS2520,ООО «Т2 Мобайл»
66,1031192081,67,1031192081,здание/сооружение,Государственное бюджетное учреждение здравоохранения города Москвы «Госпиталь для ветеранов войн № 1 Департамента здравоохранения города Москвы»,да,Центральный административный округ,район Замоскворечье,"город Москва, 2-я Дубровская улица, дом 13, строение 7",37.67373,55.72723,MS4295,ООО «Т2 Мобайл»
67,1031192082,68,1031192082,здание/сооружение,Государственное бюджетное учреждение здравоохранения города Москвы «Детская городская поликлиника № 38 Департамента здравоохранения города Москвы» Филиал № 2,да,Центральный административный округ,Таганский район,"Российская Федерация, город Москва, внутригородская территория муниципальный округ Арбат, Проточный переулок, дом 3-5, строение 1",37.58126,55.75009,MS0289,ООО «Т2 Мобайл»
68,1031192083,69,1031192083,здание/сооружение,Государственное бюджетное учреждение здравоохранения города Москвы «Детская городская поликлиника № 104 Департамента здравоохранения города Москвы»,да,Центральный административный округ,район Арбат,"Российская Федерация, город Москва, внутригородская территория муниципальный округ Таганский, Сибирский проезд, дом 1, строение 1",37.680539,55.733460,MS4063,ООО «Т2 Мобайл»
69,1031192084,70,1031192084,здание/сооружение,Государственное бюджетное учреждение культуры и дополнительного образования города Москвы «Мультимедийный комплекс актуальных искусств»,да,Центральный административный округ,Таганский район,"Российская Федерация, город Москва, внутригородская территория муниципальный округ Хамовники, улица Остоженка, дом 16",37.598806,55.741636,MS3900,ООО «Т2 Мобайл»
70,1031192085,71,1031192085,здание/сооружение,Государственное бюджетное учреждение города Москвы «Московская служба психологической помощи населению» Департамента труда и социальной защиты населения города Москвы,да,Центральный административный округ,район Хамовники,"Российская Федерация, город Москва, внутригородская территория муниципальный округ Красносельский, Докучаев переулок, дом 12",37.644712,55.772973,MC4353,ООО «Т2 Мобайл»
71,1031192088,72,1031192088,здание/сооружение,Государственное бюджетное учреждение здравоохранения города Москвы «Детская городская поликлиника № 38 Департамента здравоохранения города Москвы»,да,Центральный административный округ,Таганский район,"город Москва, улица 10-летия Октября, дом 2, строение 1",37.561823,55.725595,MS4066,ООО «Т2 Мобайл»
72,1031192100,73,1031192100,здание/сооружение,Государственное бюджетное учреждение здравоохранения города Москвы «Детская городская поликлиника № 15 Департамента здравоохранения города Москвы»,да,Центральный административный округ,район Хамовники,"город Москва, улица Всеволода Вишневского, дом 4А",37.574444,55.813678,MS6115,ООО «Т2 Мобайл»
73,1031192102,74,1031192102,здание/сооружение,Государственное унитарное предприятие города Москвы «М.Прогресс»,да,Центральный административный округ,Пресненский район,"Российская Федерация, город Москва, внутригородская территория муниципальный округ Мещанский, проспект Мира, дом 72",37.636837,55.789497,4239,ПАО «ВымпелКом»
74,1031192103,75,1031192103,здание/сооружение,Государственное унитарное предприятие города Москвы «М.Прогресс»,да,Центральный административный округ,Мещанский район,"Российская Федерация, город Москва, внутригородская территория муниципальный округ Мещанский, проспект Мира, дом 72",37.636837,55.789497,MS4048,ООО «Т2 Мобайл»
75,1031192104,76,1031192104,здание/сооружение,Государственное бюджетное учреждение здравоохранения города Москвы «Детская городская клиническая больница № 9 им. Г.Н.Сперанского Департамента здравоохранения города Москвы»,да,Центральный административный округ,Красносельский район,"город Москва, Шмитовский проезд, дом 29, строение 1",37.53931,55.75526,MS5441,ООО «Т2 Мобайл»
76,1031192106,77,1031192106,здание/сооружение,Государственное бюджетное учреждение культуры города Москвы «Московский театр «Театр Луны»,да,Центральный административный округ,Пресненский район,"Российская Федерация, город Москва, внутригородская территория муниципальный округ Замоскворечье, улица Малая Ордынка, дом 31, строение 1",37.626043,55.733604,2486,ПАО «Мобильные ТелеСистемы»
77,1031192107,78,1031192107,здание/сооружение,Государственное бюджетное учреждение города Москвы «Жилищник района Метрогородок»,да,Восточный административный округ,район Метрогородок,"Российская Федерация, город Москва, внутригородская территория муниципальный округ Метрогородок, Открытое шоссе, дом 30А",37.768732,55.829214,3517,ПАО «МегаФон»
78,1031192111,79,1031192111,здание/сооружение,Государственное бюджетное учреждение здравоохранения города Москвы «Госпиталь для ветеранов войн № 2 Департамента здравоохранения города Москвы»,да,Восточный административный округ,район Метрогородок,"Российская Федерация, город Москва, внутригородская территория муниципальный округ Выхино-Жулебино, Волгоградский проспект, дом 168, строение 1",37.813181,55.690060,419,ПАО «Мобильные ТелеСистемы»
79,1031192112,80,1031192112,здание/сооружение,Государственное бюджетное учреждение культуры города Москвы «Государственный музей А.С.Пушкина»,да,Центральный административный округ,Тверской район,"Российская Федерация, город Москва, внутригородская территория муниципальный округ Хамовники, улица Пречистенка, дом 12/2, строение 2",37.597127,55.743811,1029,ПАО «МегаФон»
80,1031192113,81,1031192113,здание/сооружение,Государственное бюджетное учреждение здравоохранения города Москвы «Госпиталь для ветеранов войн № 2 Департамента здравоохранения города Москвы»,да,Восточный административный округ,район Измайлово,"Российская Федерация, город Москва, внутригородская территория муниципальный округ Выхино-Жулебино, Волгоградский проспект, дом 168, строение 1",37.81314,55.69001,MS0877,ООО «Т2 Мобайл»
81,1031192115,82,1031192115,здание/сооружение,Государственное унитарное предприятие города Москвы «Строительство и эксплуатация промышленных объектов»,да,Восточный административный округ,район Вешняки,"Российская Федерация, город Москва, внутригородская территория муниципальный округ Печатники, Волгоградский проспект, дом 42, корпус 5",37.721199,55.708871,6767,ПАО «МегаФон»
82,1031192118,83,1031192118,здание/сооружение,Государственное бюджетное учреждение города Москвы «Спортивная школа № 4» Департамента спорта города Москвы,да,Юго-Восточный административный округ,Южнопортовый район,"Российская Федерация, город Москва, внутригородская территория муниципальный округ Некрасовка, 2-я Вольская улица, дом 16, корпус 3",37.92368,55.68555,MS6369,ООО «Т2 Мобайл»
83,1031192119,84,1031192119,здание/сооружение,Государственное бюджетное учреждение здравоохранения города Москвы «Детская городская клиническая больница имени Н.Ф.Филатова Департамента здравоохранения города Москвы»,да,Центральный административный округ,район Замоскворечье,"город Москва, Садовая-Кудринская улица, дом 15, строение 6",37.584398,55.765119,28,ПАО «Мобильные ТелеСистемы»
84,1031192121,85,1031192121,здание/сооружение,Государственное бюджетное учреждение города Москвы «Физкультурно-спортивное объединение «Хоккей Москвы» Департамента спорта города Москвы,да,Центральный административный округ,Таганский район,"Российская Федерация, город Москва, внутригородская территория муниципальный округ Таганский, улица Талалихина, дом 28, строение 4",37.678861,55.73066,1255,ПАО «МегаФон»
85,1031192123,86,1031192123,здание/сооружение,Государственное бюджетное учреждение здравоохранения города Москвы «Детская городская клиническая больница имени Н.Ф.Филатова Департамента здравоохранения города Москвы»,да,Центральный административный округ,Пресненский район,"город Москва, Садовая-Кудринская улица, дом 15, строение 6",37.584398,55.765119,4321,ПАО «ВымпелКом»
86,1031192126,87,1031192126,здание/сооружение,Государственное бюджетное учреждение города Москвы «Жилищник Ивановского района»,да,Восточный административный округ,район Новогиреево,"Российская Федерация, город Москва, внутригородская территория муниципальный округ Ивановское, Малый Купавенский проезд, дом 14А",37.83828,55.78303,2882,ПАО «МегаФон»
87,1031192128,88,1031192128,здание/сооружение,Государственное бюджетное учреждение города Москвы «Жилищник района Метрогородок»,да,Восточный административный округ,район Преображенское,"Российская Федерация, город Москва, внутригородская территория муниципальный округ Метрогородок, Открытое шоссе, дом 30А",37.768732,55.829214,2091,ПАО «Мобильные ТелеСистемы»
88,1031192131,89,1031192131,здание/сооружение,Государственное бюджетное учреждение города Москвы «Жилищник района Метрогородок»,да,Восточный административный округ,район Перово,"Российская Федерация, город Москва, внутригородская территория муниципальный округ Метрогородок, Открытое шоссе, дом 30А",37.768486,55.829212,12064,ПАО «ВымпелКом»
89,1031192132,90,1031192132,здание/сооружение,Государственное бюджетное учреждение города Москвы «Жилищник района Метрогородок»,да,Восточный административный округ,район Новокосино,"Российская Федерация, город Москва, внутригородская территория муниципальный округ Метрогородок, Открытое шоссе, дом 30А",37.768731,55.829261,MS3033,ООО «Т2 Мобайл»
90,1031192134,91,1031192134,здание/сооружение,Государственное бюджетное учреждение здравоохранения города Москвы «городская клиническая больница имени В.П.Демихова Департамента здравоохранения города Москвы» Филиал Поликлиническое отделение «Капотня»,да,Юго-Восточный административный округ,район Некрасовка,"город Москва, 3-й квартал Капотня, дом 27",37.8032,55.6372,6524,ПАО «МегаФон»
91,1031192135,92,1031192135,здание/сооружение,Государственное бюджетное учреждение города Москвы «Жилищник района Измайлово»,да,Восточный административный округ,район Новогиреево,"Российская Федерация, город Москва, внутригородская территория муниципальный округ Измайлово, 1-я улица Измайловского Зверинца, дом 8",37.745644,55.775291,647,ПАО «ВымпелКом»
92,1031192137,93,1031192137,здание/сооружение,Государственное бюджетное учреждение города Москвы «Спортивная школа олимпийского резерва № 64» Департамента спорта города Москвы,да,Юго-Восточный административный округ,район Лефортово,"Российская Федерация, город Москва, внутригородская территория муниципальный округ Лефортово, Авиамоторная улица, дом 40",37.72011,55.741737,6507,ПАО «МегаФон»
93,1031192139,94,1031192139,здание/сооружение,Государственное бюджетное учреждение здравоохранения города Москвы «Детская городская поликлиника № 148 Департамента здравоохранения города Москвы» Филиал № 2,да,Юго-Восточный административный округ,район Марьино,"Российская Федерация, город Москва, внутригородская территория муниципальный округ Марьино, Перервинский бульвар, дом 18, корпус 1",37.76889,55.65447,MS3147,ООО «Т2 Мобайл»
94,1031192140,95,1031192140,здание/сооружение,Государственное бюджетное учреждение здравоохранения города Москвы «городская поликлиника № 23 Департамента здравоохранения города Москвы»,да,Восточный административный округ,район Перово,"Российская Федерация, город Москва, внутригородская территория муниципальный округ Выхино-Жулебино, улица Авиаконструктора Миля, дом 6, корпус 1",37.851709,55.685041,3128,ПАО «МегаФон»
95,1031192141,96,1031192141,здание/сооружение,Государственное бюджетное учреждение здравоохранения города Москвы «Детская городская поликлиника № 61 Департамента здравоохранения города Москвы» Филиал № 1,да,Юго-Восточный административный округ,район Кузьминки,"Российская Федерация, город Москва, внутригородская территория муниципальный округ Печатники, улица Полбина, дом 50",37.726606,55.677742,6712,ПАО «МегаФон»
96,1031192142,97,1031192142,здание/сооружение,Государственное бюджетное учреждение здравоохранения города Москвы «Детская городская поликлиника №48 Департамента здравоохранения города Москвы»,да,Восточный административный округ,район Ивановское,"Российская Федерация, город Москва, внутригородская территория муниципальный округ Текстильщики, улица Артюхиной, дом 27, корпус 3",37.741778,55.694064,3361,ПАО «МегаФон»
97,1031192143,98,1031192143,здание/сооружение,Государственное бюджетное учреждение города Москвы «Автомобильные дороги»,да,Юго-Восточный административный округ,район Выхино-Жулебино,"город Москва, Батюнинский проезд, дом 14",37.701855,55.661559,6514,ПАО «МегаФон»
98,1031192144,99,1031192144,здание/сооружение,Государственное бюджетное учреждение здравоохранения города Москвы «Детская городская поликлиника № 143 Департамента здравоохранения города Москвы»,да,Юго-Восточный административный округ,район Печатники,"Российская Федерация, город Москва, внутригородская территория муниципальный округ Выхино-Жулебино, Самаркандский бульвар, дом 17, корпус 2",37.815714,55.695545,6709,ПАО «МегаФон»
99,1031192145,100,1031192145,здание/сооружение,Государственное бюджетное учреждение здравоохранения города Москвы «городская клиническая больница № 68 Департамента здравоохранения города Москвы»,да,Юго-Восточный административный округ,район Люблино,"Российская Федерация, город Москва, внутригородская территория муниципальный округ Выхино-Жулебино, Самаркандский бульвар, дом 3",37.828315,55.70352,6708,ПАО «МегаФон»
100,1031192146,101,1031192146,здание/сооружение,Государственное бюджетное учреждение здравоохранения города Москвы «Детская городская поликлиника № 61 Департамента здравоохранения города Москвы»,да,Юго-Восточный административный округ,район Некрасовка,"Российская Федерация, город Москва, внутригородская территория муниципальный округ Лефортово, 2-я улица Синичкина, дом 6, строение 1",37.710519,55.763032,6711,ПАО «МегаФон»
101,1031192147,102,1031192147,здание/сооружение,Государственное бюджетное учреждение культуры города Москвы «Московское кино»,да,Юго-Восточный административный округ,район Капотня,"Российская Федерация, город Москва, внутригородская территория муниципальный округ Лефортово, Солдатская улица, дом 15",37.705492,55.764193,6578,ПАО «МегаФон»
102,1031192148,103,1031192148,здание/сооружение,Государственное бюджетное учреждение здравоохранения города Москвы «Психиатрическая клиническая больница № 13 Департамента здравоохранения города Москвы»,да,Юго-Восточный административный округ,район Марьино,"Российская Федерация, город Москва, внутригородская территория муниципальный округ Люблино, Ставропольская улица, дом 27, строение 35",37.772332,55.682683,3552,ПАО «МегаФон»
103,1031192149,104,1031192149,здание/сооружение,Государственное бюджетное учреждение города Москвы «Жилищник района Люблино»,да,Юго-Восточный административный округ,район Марьино,"Российская Федерация, город Москва, внутригородская территория муниципальный округ Люблино, Таганрогская улица, дом 25",37.756353,55.676286,490,ПАО «Мобильные ТелеСистемы»
104,1031192150,105,1031192150,здание/сооружение,Государственное унитарное предприятие города Москвы «Мосгортранс»,да,Юго-Восточный административный округ,район Печатники,"город Москва, Угрешская улица, дом 18/1, строение 4",37.699053,55.715357,6658,ПАО «МегаФон»
105,1031192161,106,1031192161,здание/сооружение,Государственное бюджетное учреждение здравоохранения города Москвы «Детская городская поликлиника № 143 Департамента здравоохранения города Москвы»,да,Юго-Восточный административный округ,район Печатники,"Российская Федерация, город Москва, внутригородская территория муниципальный округ Выхино-Жулебино, улица Авиаконструктора Миля, дом 5, корпус 1",37.85397,55.68714,MS5475,ООО «Т2 Мобайл»
106,1031192162,107,1031192162,здание/сооружение,Государственное бюджетное учреждение здравоохранения города Москвы «Детская городская поликлиника № 143 Департамента здравоохранения города Москвы»,да,Юго-Восточный административный округ,район Выхино-Жулебино,"Российская Федерация, город Москва, внутригородская территория муниципальный округ Выхино-Жулебино, Самаркандский бульвар, дом 17, корпус 2",37.815714,55.695545,4403,ПАО «Мобильные ТелеСистемы»
107,1031192163,108,1031192163,здание/сооружение,Государственное бюджетное учреждение здравоохранения города Москвы «городская клиническая больница № 13 Департамента здравоохранения города Москвы»,да,Юго-Восточный административный округ,район Выхино-Жулебино,"город Москва, Велозаводская улица, дом 1/1, строение 12",37.666647,55.718932,3835,ПАО «Мобильные ТелеСистемы»
108,1031192164,109,1031192164,здание/сооружение,Государственное бюджетное учреждение здравоохранения города Москвы «Детская городская поликлиника № 61 Департамента здравоохранения города Москвы»,да,Юго-Восточный административный округ,район Лефортово,"Российская Федерация, город Москва, внутригородская территория муниципальный округ Лефортово, 2-я улица Синичкина, дом 6, строение 1",37.710519,55.763032,5143,ПАО «ВымпелКом»
109,1031192165,110,1031192165,здание/сооружение,Государственное бюджетное учреждение здравоохранения города Москвы «городская поликлиника № 23 Департамента здравоохранения города Москвы» Филиал № 3,да,Юго-Восточный административный округ,район Лефортово,"Российская Федерация, город Москва, внутригородская территория муниципальный округ Рязанский, улица Вострухина, дом 5",37.79733,55.71967,MS4738,ООО «Т2 Мобайл»
110,1031192166,111,1031192166,здание/сооружение,Государственное бюджетное учреждение здравоохранения города Москвы «городская поликлиника № 19 Департамента здравоохранения города Москвы» Филиал № 3,да,Юго-Восточный административный округ,район Люблино,"Российская Федерация, город Москва, внутригородская территория муниципальный округ Люблино, Краснодарская улица, дом 63",37.77152,55.67684,MS0701,ООО «Т2 Мобайл»
111,1031192167,112,1031192167,здание/сооружение,Государственное бюджетное учреждение здравоохранения города Москвы «Психиатрическая клиническая больница № 13 Департамента здравоохранения города Москвы»,да,Юго-Восточный административный округ,район Люблино,"город Москва, Ставропольская улица, дом 27, строение 2",37.76564,55.68272,MS0843,ООО «Т2 Мобайл»
112,1031192169,113,1031192169,здание/сооружение,Государственное бюджетное учреждение здравоохранения города Москвы «Детская городская поликлиника № 143 Департамента здравоохранения города Москвы» Филиал № 3,да,Юго-Восточный административный округ,район Печатники,"Российская Федерация, город Москва, внутригородская территория муниципальный округ Выхино-Жулебино, Ферганская улица, дом 10, корпус 2",37.80791,55.70847,MS3090,ООО «Т2 Мобайл»
113,1031192170,114,1031192170,здание/сооружение,Государственное бюджетное учреждение здравоохранения города Москвы «городская клиническая больница имени В.П.Демихова Департамента здравоохранения города Москвы» Филиал Амбулаторно-поликлинический центр ГКБ имени В.П.Демихова,да,Юго-Восточный административный округ,район Выхино-Жулебино,"Российская Федерация, город Москва, внутригородская территория муниципальный округ Текстильщики, улица Шкулёва, дом 4, строение 1",37.749858,55.6932,363,ПАО «ВымпелКом»
114,1031192171,115,1031192171,здание/сооружение,Государственное бюджетное учреждение здравоохранения города Москвы «городская поликлиника № 109 Департамента здравоохранения города Москвы» Филиал № 1,да,Юго-Восточный административный округ,район Марьино,"Российская Федерация, город Москва, внутригородская территория муниципальный округ Печатники, Шоссейная улица, дом 41",37.72463,55.67791,MS0283,ООО «Т2 Мобайл»
115,1031192172,116,1031192172,здание/сооружение,Государственное бюджетное учреждение здравоохранения города Москвы «городская клиническая больница имени В.П.Демихова Департамента здравоохранения города Москвы»,да,Юго-Восточный административный округ,Южнопортовый район,"Российская Федерация, город Москва, внутригородская территория муниципальный округ Текстильщики, улица Шкулёва, дом 4, строение 1",37.74969,55.69318,3075,ПАО «МегаФон»
116,1031192173,117,1031192173,здание/сооружение,Государственное бюджетное учреждение здравоохранения города Москвы «городская клиническая больница имени В.П.Демихова Департамента здравоохранения города Москвы»,да,Юго-Восточный административный округ,район Марьино,"Российская Федерация, город Москва, внутригородская территория муниципальный округ Текстильщики, улица Шкулёва, дом 4, строение 1",37.750056,55.69332,4073,ПАО «Мобильные ТелеСистемы»
117,1031192175,118,1031192175,здание/сооружение,Государственное бюджетное учреждение здравоохранения города Москвы «городская поликлиника № 6 Департамента здравоохранения города Москвы»,да,Северный административный округ,район Коптево,"Российская Федерация, город Москва, внутригородская территория муниципальный округ Тимирязевский, улица Вучетича, дом 7Б",37.55674,55.807781,12262,ПАО «ВымпелКом»
118,1031192177,119,1031192177,здание/сооружение,Государственное бюджетное учреждение здравоохранения города Москвы «городская поликлиника № 6 Департамента здравоохранения города Москвы» Филиал № 3,да,Северный административный округ,Хорошёвский район,"Российская Федерация, город Москва, внутригородская территория муниципальный округ Коптево, 3-й Новомихалковский проезд, дом 3А",37.542859,55.839451,MS2687,ООО «Т2 Мобайл»
119,1031192179,120,1031192179,здание/сооружение,Государственное унитарное предприятие города Москвы Московский ордена Ленина и ордена Трудового Красного Знамени метрополитен имени В.И.Ленина,да,Северный административный округ,район Сокол,"Российская Федерация, город Москва, внутригородская территория муниципальный округ Ховрино, улица Дыбенко, дом 7, строение 1",37.480380,55.879446,18329,ПАО «Мобильные ТелеСистемы»
120,1031192181,121,1031192181,здание/сооружение,Государственное бюджетное учреждение города Москвы «Жилищник Бескудниковского района»,да,Северный административный округ,Дмитровский район,"Российская Федерация, город Москва, внутригородская территория муниципальный округ Бескудниковский, Бескудниковский бульвар, дом 19, строение 1",37.55759,55.866032,11500,ПАО «ВымпелКом»
121,1031192184,122,1031192184,здание/сооружение,Государственное бюджетное учреждение здравоохранения города Москвы «городская поликлиника № 6 Департамента здравоохранения города Москвы» Филиал № 1,да,Северный административный округ,район Западное Дегунино,"Российская Федерация, город Москва, внутригородская территория муниципальный округ Савеловский, 1-я Квесисская улица, дом 8",37.581696,55.79411,13713,ПАО «ВымпелКом»
122,1031192185,123,1031192185,здание/сооружение,Государственное унитарное предприятие города Москвы «Дирекция строительства и эксплуатации объектов гаражного назначения города Москвы»,да,Северный административный округ,Тимирязевский район,"Российская Федерация, город Москва, внутригородская территория муниципальный округ Коптево, Новопетровская улица, дом 7А",37.523533,55.82785,12118,ПАО «ВымпелКом»
123,1031192188,124,1031192188,здание/сооружение,Государственное бюджетное учреждение здравоохранения города Москвы «городская поликлиника № 62 Департамента здравоохранения города Москвы» Филиал № 3,да,Северный административный округ,Хорошёвский район,"город Москва, улица Куусинена, дом 6Б",37.519947,55.783848,14901,ПАО «ВымпелКом»
124,1031192189,125,1031192189,здание/сооружение,Государственное бюджетное учреждение здравоохранения города Москвы «Городская клиническая больница имени С.И.Спасокукоцкого Департамента здравоохранения города Москвы»,да,Северный административный округ,район Левобережный,"Российская Федерация, город Москва, внутригородская территория муниципальный округ Тимирязевский, улица Вучетича, дом 21, строение 6",37.554538,55.811882,21835,ПАО «Мобильные ТелеСистемы»
125,1031192190,126,1031192190,здание/сооружение,Государственное унитарное предприятие города Москвы «Московский центр внедрения достижений науки и техники «Москва»,да,Северный административный округ,район Коптево,"Российская Федерация, город Москва, внутригородская территория муниципальный округ Останкинский, проспект Мира, дом 119, строение 38",37.62154,55.83958,MS3604,ООО «Т2 Мобайл»
126,1031192192,127,1031192192,здание/сооружение,Государственное бюджетное профессиональное образовательное учреждение города Москвы «Колледж современных технологий имени Героя Советского Союза М.Ф.Панова»,да,Северный административный округ,район Ховрино,"Российская Федерация, город Москва, внутригородская территория муниципальный округ Лосиноостровский, Анадырский проезд, дом 51, строение 1",37.704987,55.879283,10010,ПАО «Мобильные ТелеСистемы»
127,1031192193,128,1031192193,здание/сооружение,Государственное бюджетное учреждение здравоохранения города Москвы «городская клиническая больница им. В.В.Вересаева Департамента здравоохранения города Москвы»,да,Северный административный округ,Бескудниковский район,"город Москва, Лобненская улица, дом 10, строение 10",37.534801,55.8908,4255,ПАО «ВымпелКом»
128,1031192194,129,1031192194,здание/сооружение,Государственное бюджетное учреждение города Москвы «Жилищник Бескудниковского района»,да,Северный административный округ,Бескудниковский район,"город Москва, Бескудниковский бульвар, дом 19, строение 1",37.55759,55.866032,4035,ПАО «Мобильные ТелеСистемы»
129,1031192196,130,1031192196,здание/сооружение,Государственное автономное образовательное учреждение высшего образования города Москвы «Московский городской педагогический университет»,да,Северный административный округ,Дмитровский район,"Российская Федерация, город Москва, внутригородская территория муниципальный округ Ростокино, 2-й Сельскохозяйственный проезд, дом 4, корпус 1",37.643477,55.833602,10076,ПАО «Мобильные ТелеСистемы»
130,1031192197,131,1031192197,здание/сооружение,Государственное бюджетное учреждение здравоохранения города Москвы «городская поликлиника № 6 Департамента здравоохранения города Москвы»,да,Северный административный округ,Савёловский район,"Российская Федерация, город Москва, внутригородская территория муниципальный округ Тимирязевский, улица Немчинова, дом 14",37.564487,55.8232,12258,ПАО «ВымпелКом»
131,1031192201,132,1031192201,здание/сооружение,Государственное бюджетное учреждение здравоохранения города Москвы «Диагностический центр № 5 с поликлиническим отделением Департамента здравоохранения города Москвы»,да,Северо-Восточный административный округ,Лосиноостровский район,"Российская Федерация, город Москва, внутригородская территория муниципальный округ Бибирево, Мурановская улица, дом 10А, строение 1",37.60466,55.89404,MS0305,ООО «Т2 Мобайл»
132,1031192204,133,1031192204,здание/сооружение,Государственное бюджетное учреждение здравоохранения города Москвы «Московский научно-практический центр борьбы с туберкулезом Департамента здравоохранения города Москвы»,да,Северо-Восточный административный округ,район Ростокино,"Российская Федерация, город Москва, внутригородская территория муниципальный округ Бутырский, улица Гончарова, дом 4, строение 1",37.58464,55.81471,MS4619,ООО «Т2 Мобайл»
133,1031192205,134,1031192205,здание/сооружение,Государственное бюджетное образовательное учреждение высшего образования «Национальный исследовательский Московский государственный строительный университет»,да,Северо-Восточный административный округ,район Северное Медведково,"Российская Федерация, город Москва, внутригородская территория муниципальный округ Северное Медведково, улица Грекова, дом 3, корпус 1",37.659319,55.884510,MS6126,ООО «Т2 Мобайл»
134,1031192207,135,1031192207,здание/сооружение,Государственное бюджетное учреждение здравоохранения города Москвы «Диагностический центр № 5 с поликлиническим отделением Департамента здравоохранения города Москвы» Филиал № 3,да,Северо-Восточный административный округ,Алексеевский район,"Российская Федерация, город Москва, внутригородская территория муниципальный округ Бибирево, Шенкурский проезд, дом 8А",37.59259,55.89349,MS2834,ООО «Т2 Мобайл»
135,1031192208,136,1031192208,здание/сооружение,Государственное бюджетное учреждение здравоохранения города Москвы «Детская городская поликлиника № 125 Департамента здравоохранения города Москвы» Филиал № 1,да,Северо-Восточный административный округ,район Бибирево,"город Москва, улица Лескова, дом 8Б",37.5952,55.89588,MS3599,ООО «Т2 Мобайл»
136,1031192209,137,1031192209,здание/сооружение,Государственное бюджетное профессиональное образовательное учреждение города Москвы «Колледж современных технологий имени Героя Советского Союза М.Ф.Панова»,да,Северо-Восточный административный округ,район Бибирево,"город Москва, улица Павла Корчагина, дом 17",37.66321,55.82032,MS2878,ООО «Т2 Мобайл»
137,1031192210,138,1031192210,здание/сооружение,Государственное бюджетное учреждение здравоохранения городы Москвы «Детская городская поликлиника № 125 Департамента здравоохранения города Москвы» Филиал № 2,да,Северо-Восточный административный округ,Бутырский район,"Российская Федерация, город Москва, внутригородская территория муниципальный округ Лианозово, Новгородская улица, дом 23А",37.5777,55.90178,MS2861,ООО «Т2 Мобайл»
138,1031192211,139,1031192211,здание/сооружение,Государственное бюджетное профессиональное образовательное учреждение города Москвы «Колледж современных технологий имени Героя Советского Союза М.Ф.Панова»,да,Северо-Восточный административный округ,район Лианозово,"Российская Федерация, город Москва, внутригородская территория муниципальный округ Ярославский, Хибинский проезд, дом 10",37.68088,55.85613,MS0353,ООО «Т2 Мобайл»
139,1031192222,140,1031192222,здание/сооружение,Государственное бюджетное учреждение города Москвы «Управление спортивными объектами» Департамента спорта города Москвы,да,Северо-Восточный административный округ,район Марьина Роща,"город Москва, 3-я улица Марьиной Рощи, дом 8",37.622585,55.796926,13670,ПАО «ВымпелКом»
140,1031192224,141,1031192224,здание/сооружение,Государственное бюджетное учреждение города Москвы «Управление спортивными объектами» Департамента спорта города Москвы,да,Северо-Восточный административный округ,Бабушкинский район,"Российская Федерация, город Москва, внутригородская территория муниципальный округ Бабушкинский, Олонецкий проезд, дом 5",37.665560,55.879541,4399,ПАО «ВымпелКом»
141,1031192225,142,1031192225,здание/сооружение,Государственное бюджетное профессиональное образовательное учреждение города Москвы «Колледж современных технологий имени Героя Советского Союза М.Ф.Панова»,да,Северо-Восточный административный округ,район Лианозово,"город Москва, улица Павла Корчагина, дом 17",37.663297,55.820334,1322,ПАО «Мобильные ТелеСистемы»
142,1031192226,143,1031192226,здание/сооружение,Государственное бюджетное учреждение города Москвы «Управление спортивными объектами» Департамента спорта города Москвы,да,Северо-Восточный административный округ,район Бибирево,"Российская Федерация, город Москва, внутригородская территория муниципальный округ Бибирево, улица Пришвина, дом 20",37.601214,55.886180,MS2826,ООО «Т2 Мобайл»
143,1031192227,144,1031192227,здание/сооружение,Государственное бюджетное учреждение культуры города Москвы «Московский Новый драматический театр»,да,Северо-Восточный административный округ,Ярославский район,"Российская Федерация, город Москва, внутригородская территория муниципальный округ Ярославский, улица Проходчиков, дом 2",37.720726,55.873870,20194,ПАО «Мобильные ТелеСистемы»
144,1031192228,145,1031192228,здание/сооружение,Казенное предприятие города Москвы «Выставка достижений народного хозяйства»,да,Северо-Восточный административный округ,район Марьина Роща,"Российская Федерация, город Москва, внутригородская территория муниципальный округ Останкинский, проспект Мира, дом 119, строение 57",37.626524,55.834066,MC5073,ООО «Т2 Мобайл»
145,1031192229,146,1031192229,здание/сооружение,Государственное бюджетное учреждение города Москвы «Автомобильные дороги»,да,Северо-Восточный административный округ,район Бибирево,"Российская Федерация, город Москва, внутригородская территория муниципальный округ Останкинский, Прудовой проезд, дом 3Б, строение 3",37.611,55.81361,2869,ПАО «МегаФон»
146,1031192230,147,1031192230,здание/сооружение,Казенное предприятие города Москвы «Выставка достижений народного хозяйства»,да,Северо-Восточный административный округ,Лосиноостровский район,"Российская Федерация, город Москва, внутригородская территория муниципальный округ Останкинский, проспект Мира, дом 119, строение 34",37.621498,55.835260,2865,ПАО «МегаФон»
147,1031192231,148,1031192231,здание/сооружение,Государственное бюджетное учреждение культуры города Москвы «Московское кино»,да,Северо-Восточный административный округ,Бабушкинский район,"Российская Федерация, город Москва, внутригородская территория муниципальный округ Свиблово, Снежная улица, дом 18",37.647449,55.851928,2293,ПАО «МегаФон»
148,1031192232,149,1031192232,здание/сооружение,Государственное бюджетное учреждение здравоохранения города Москвы «городская поликлиника № 12 Департамента здравоохранения города Москвы»,да,Северо-Восточный административный округ,район Лианозово,"город Москва, улица Яблочкова, дом 3А, строение 1",37.579690,55.813931,MC3237,ООО «Т2 Мобайл»
149,1031192233,150,1031192233,здание/сооружение,Государственное бюджетное учреждение культуры города Москвы «Мемориальный музей космонавтики»,да,Северо-Восточный административный округ,Бутырский район,"Российская Федерация, город Москва, внутригородская территория муниципальный округ Останкинский, проспект Мира, дом 111",37.639899,55.822624,67216,ПАО «МегаФон»
150,1031192234,151,1031192234,здание/сооружение,Государственное бюджетное профессиональное образовательное учреждение города Москвы «Первый Московский Образовательный Комплекс»,да,Северо-Восточный административный округ,район Северный,"Российская Федерация, город Москва, внутригородская территория муниципальный округ Северное Медведково, улица Тихомирова, дом 10, корпус 1",37.6525,55.884,902,ПАО «МегаФон»
151,1031192235,152,1031192235,здание/сооружение,Государственное бюджетное учреждение города Москвы «Управление спортивными объектами» Департамента спорта города Москвы,да,Северо-Восточный административный округ,Останкинский район,"город Москва, улица Седова, дом 12А
",37.637641,55.853360,0,0
152,1031192236,153,1031192236,здание/сооружение,Государственное бюджетное учреждение культуры города Москвы «Мемориальный музей космонавтики»,да,Северо-Восточный административный округ,Бутырский район,"Российская Федерация, город Москва, внутригородская территория муниципальный округ Останкинский, проспект Мира, дом 111",37.639899,55.822624,18588,ПАО «Мобильные ТелеСистемы»
153,1031192237,154,1031192237,здание/сооружение,Государственное бюджетное учреждение города Москвы «Жилищник района Ростокино»,да,Северо-Восточный административный округ,район Северный,"Российская Федерация, город Москва, внутригородская территория муниципальный округ Северное Медведково, Широкая улица, дом 17, корпус 6",37.668651,55.888725,MS1481,ООО «Т2 Мобайл»
154,1031192238,155,1031192238,здание/сооружение,Государственное бюджетное учреждение города Москвы «Управление спортивными объектами» Департамента спорта города Москвы,да,Северо-Восточный административный округ,Алексеевский район,"Российская Федерация, город Москва, внутригородская территория муниципальный округ Северное Медведково, Студёный проезд, дом 1А, строение 1",37.651601,55.894596,0,0
155,1031192239,156,1031192239,здание/сооружение,Государственное бюджетное учреждение города Москвы «Управление спортивными объектами» Департамента спорта города Москвы,да,Северо-Восточный административный округ,Ярославский район,"Российская Федерация, город Москва, внутригородская территория муниципальный округ Отрадное, улица Хачатуряна, дом 10, строение 1",37.594243,55.856942,0,0
156,1031192240,157,1031192240,здание/сооружение,Государственное бюджетное учреждение здравоохранения города Москвы «городская клиническая больница имени Д.Д.Плетнёва Департамента здравоохранения города Москвы»,да,Северо-Восточный административный округ,Останкинский район,"Российская Федерация, город Москва, внутригородская территория муниципальный округ Восточное Измайлово, 11-я Парковая улица, дом 32, корпус 4",37.8065,55.7990,1642,ПАО «Мобильные ТелеСистемы»
157,1031192241,158,1031192241,здание/сооружение,Государственное бюджетное учреждение города Москвы «Управление спортивными объектами» Департамента спорта города Москвы,да,Северо-Восточный административный округ,Останкинский район,"Российская Федерация, город Москва, внутригородская территория муниципальный округ Северное Медведково, проезд Шокальского, дом 45, корпус 3",37.653756,55.883636,0,0
158,1031192242,159,1031192242,здание/сооружение,Государственное бюджетное учреждение здравоохранения города Москвы «Консультативно-диагностический центр № 2 Департамента здравоохранения города Москвы» Филиал № 1,да,Северо-Восточный административный округ,Останкинский район,"Российская Федерация, город Москва, внутригородская территория муниципальный округ Богородское, 2-я Прогонная улица, дом 7А",37.70667,55.81069,MS5113,ООО «Т2 Мобайл»
159,1031192243,160,1031192243,здание/сооружение,Государственное бюджетное профессиональное образовательное учреждение города Москвы «Колледж железнодорожного и городского транспорта»,да,Северо-Восточный административный округ,Бутырский район,"город Москва, Бойцовая улица, дом 6, корпус 8Б",37.721022,55.809970,4269,ПАО «Мобильные ТелеСистемы»
160,1031192244,161,1031192244,здание/сооружение,Государственное бюджетное учреждение здравоохранения города Москвы «Городская клиническая больница имени А.К.Ерамишанцева Департамента здравоохранения города Москвы»,да,Северо-Восточный административный округ,район Свиблово,"Российская Федерация, город Москва, внутригородская территория муниципальный округ Бутырский, улица Яблочкова, дом 33, строение 1",37.578648,55.824875,2104,ПАО «Мобильные ТелеСистемы»
161,1031192246,162,1031192246,здание/сооружение,Государственное бюджетное учреждение здравоохранения города Москвы «Детская городская поликлиника №99 Департамента здравоохранения города Москвы»,да,Северо-Восточный административный округ,район Северное Медведково,"Российская Федерация, город Москва, внутригородская территория муниципальный округ Алексеевский, улица Касаткина, дом 9",37.659587,55.826074,MC2151,ООО «Т2 Мобайл»
162,1031192247,163,1031192247,здание/сооружение,Государственное унитарное предприятие города Москвы «Стройинвест Комплекса градостроительной политики и строительства города»,да,Северо-Восточный административный округ,Останкинский район,"Российская Федерация, город Москва, внутригородская территория муниципальный округ Вешняки, Вешняковская улица, дом 13А",37.82978,55.735965,2204,ПАО «МегаФон»
163,1031192248,164,1031192248,здание/сооружение,Государственное бюджетное учреждение здравоохранения «городская поликлиника № 12 Департамента здравоохранения города Москвы» Филиал № 3,да,Северо-Восточный административный округ,район Отрадное,"Российская Федерация, город Москва, внутригородская территория муниципальный округ Останкинский, улица Бочкова, дом 5, корпус 3",37.631595,55.809520,MC3887,ООО «Т2 Мобайл»
164,1031192251,165,1031192251,здание/сооружение,Государственное бюджетное учреждение города Москвы «Управление спортивными объектами» Департамента спорта города Москвы,да,Северо-Восточный административный округ,район Свиблово,"город Москва, улица Седова, дом 12А",37.637641,55.853360,170,ПАО «Мобильные ТелеСистемы»
165,1031192253,166,1031192253,здание/сооружение,Государственное бюджетное учреждение города Москвы «Управление спортивными объектами» Департамента спорта города Москвы,да,Северо-Восточный административный округ,район Северное Медведково,"Российская Федерация, город Москва, внутригородская территория муниципальный округ Лианозово, Зональная улица, дом 6",37.556208,55.904781,0,0
166,1031192255,167,1031192255,здание/сооружение,Государственное бюджетное учреждение города Москвы «Управление спортивными объектами» Департамента спорта города Москвы,да,Северо-Восточный административный округ,район Отрадное,"Российская Федерация, город Москва, внутригородская территория муниципальный округ Алексеевский, улица Касаткина, дом 19",37.667456,55.823171,0,0
167,1031192256,168,1031192256,здание/сооружение,Государственное бюджетное учреждение здравоохранения города Москвы «Московский научно-практический центр дерматовенерологии и косметологии Департамента здравоохранения города Москвы»,да,Восточный административный округ,район Богородское,"город Москва, Косинская улица, дом 3",37.83648,55.7279,MS6043,ООО «Т2 Мобайл»
168,1031192258,169,1031192258,здание/сооружение,Казенное предприятие города Москвы «Общественный центр имени Моссовета»,да,Восточный административный округ,район Метрогородок,"Российская Федерация, город Москва, внутригородская территория муниципальный округ Преображенское, Преображенская площадь, дом 12",37.71379,55.79427,MS4651,ООО «Т2 Мобайл»
169,1031192259,170,1031192259,здание/сооружение,Государственное бюджетное учреждение города Москвы «Управление спортивными объектами» Департамента спорта города Москвы,да,Северо-Восточный административный округ,Бутырский район,"Российская Федерация, город Москва, внутригородская территория муниципальный округ Бабушкинский, Олонецкий проезд, дом 5",37.665560,55.879541,0,0
170,1031192261,171,1031192261,здание/сооружение,Государственное автономное образовательное учреждение высшего образования города Москвы «Московский городской педагогический университет»,да,Восточный административный округ,район Сокольники,"Российская Федерация, город Москва, внутригородская территория муниципальный округ Ивановское, улица Чечулина, дом 3, корпус 2",37.823533,55.781249,532,ПАО «ВымпелКом»
171,1031192265,172,1031192265,здание/сооружение,Государственное бюджетное учреждение города Москвы «Жилищник района Ростокино»,да,Северо-Восточный административный округ,Ярославский район,"Российская Федерация, город Москва, внутригородская территория муниципальный округ Ростокино, улица Докукина, дом 16, корпус 3",37.649458,55.841195,11037,ПАО «Мобильные ТелеСистемы»
172,1031192267,173,1031192267,здание/сооружение,Государственное бюджетное учреждение города Москвы «Управление спортивными объектами» Департамента спорта города Москвы,да,Северо-Восточный административный округ,район Лианозово,"Российская Федерация, город Москва, внутригородская территория муниципальный округ Лианозово, Зональная улица, дом 6",37.556208,55.904781,461,ПАО «Мобильные ТелеСистемы»
173,1031192272,174,1031192272,здание/сооружение,Государственное бюджетное учреждение здравоохранения города Москвы «Московский научно-практический центр дерматовенерологии и косметологии Департамента здравоохранения города Москвы»,да,Восточный административный округ,район Гольяново,"Российская Федерация, город Москва, внутригородская территория муниципальный округ Измайлово, 2-я Прядильная улица, дом 6",37.77839,55.79529,MS0254,ООО «Т2 Мобайл»
174,1031192274,175,1031192274,здание/сооружение,Государственное бюджетное учреждение здравоохранения города Москвы «Психиатрическая клиническая больница № 4 им.П.Б.Ганнушкина Департамента здравоохранения города Москвы»,да,Восточный административный округ,район Новогиреево,"Российская Федерация, город Москва, внутригородская территория муниципальный округ Преображенское, Потешная улица, дом 3, корпус 5",37.70218,55.8005,MS1571,ООО «Т2 Мобайл»
175,1031192275,176,1031192275,здание/сооружение,Государственное бюджетное учреждение здравоохранения города Москвы «Детская городская клиническая больница святого Владимира Департамента здравоохранения города Москвы»,да,Восточный административный округ,район Преображенское,"Российская Федерация, город Москва, внутригородская территория муниципальный округ Сокольники, Рубцовско-Дворцовая улица, дом 1/3, корпус 9",37.69353,55.78857,MS2953,ООО «Т2 Мобайл»
176,1031192276,177,1031192276,здание/сооружение,Государственное бюджетное профессиональное образовательное учреждение города Москвы «Колледж автоматизации и информационных технологий № 20»,да,Восточный административный округ,район Преображенское,"Российская Федерация, город Москва, внутригородская территория муниципальный округ Богородское, 1-я Мясниковская улица, дом 16",37.70709,55.81666,MS4684,ООО «Т2 Мобайл»
177,1031192277,178,1031192277,здание/сооружение,Государственное бюджетное профессиональное образовательное учреждение города Москвы «Колледж железнодорожного и городского транспорта»,да,Восточный административный округ,район Косино-Ухтомский,"Российская Федерация, город Москва, внутригородская территория муниципальный округ Ивановское, Напольный проезд, дом 7",37.828838,55.758301,5486,ПАО «Мобильные ТелеСистемы»
178,1031192279,179,1031192279,здание/сооружение,Государственное бюджетное учреждение здравоохранения города Москвы «городская поликлиника № 66 Департамента здравоохранения города Москвы» Филиал № 4,да,Восточный административный округ,район Измайлово,"Российская Федерация, город Москва, внутригородская территория муниципальный округ Новокосино, Новокосинская улица, дом 42",37.875277,55.742815,6691,ПАО «МегаФон»
179,1031192280,180,1031192280,здание/сооружение,Государственное бюджетное учреждение здравоохранения города Москвы «Консультативно-диагностический центр № 2 Департамента здравоохранения города Москвы» Филиал № 3,да,Восточный административный округ,район Косино-Ухтомский,"Российская Федерация, город Москва, внутригородская территория муниципальный округ Метрогородок, Открытое шоссе, дом 24, корпус 9",37.755784,55.822528,2387,ПАО «МегаФон»
180,1031192281,181,1031192281,здание/сооружение,Государственное бюджетное учреждение здравоохранения города Москвы «Консультативно-диагностический центр № 2 Департамента здравоохранения города Москвы» Филиал № 3,да,Восточный административный округ,район Преображенское,"Российская Федерация, город Москва, внутригородская территория муниципальный округ Метрогородок, Открытое шоссе, дом 24, корпус 9",37.755773,55.822643,MS5422,ООО «Т2 Мобайл»
181,1031192282,182,1031192282,здание/сооружение,Государственное бюджетное учреждение здравоохранения города Москвы «городская клиническая больница имени Д.Д.Плетнёва Департамента здравоохранения города Москвы»,да,Восточный административный округ,район Сокольники,"город Москва, 11-я Парковая улица, дом 32, корпус 2",37.808934,55.798109,2346,ПАО «МегаФон»
182,1031192284,183,1031192284,здание/сооружение,Государственное бюджетное учреждение здравоохранения города Москвы «городская клиническая больница имени Д.Д.Плетнёва Департамента здравоохранения города Москвы»,да,Восточный административный округ,район Ивановское,"Российская Федерация, город Москва, внутригородская территория муниципальный округ Измайлово, Верхняя Первомайская улица, дом 57",37.80212,55.79975,6643,ПАО «МегаФон»
183,1031192286,184,1031192286,здание/сооружение,Государственное бюджетное учреждение города Москвы «Окружной общественный центр имени Моссовета»,да,Восточный административный округ,район Новокосино,"Российская Федерация, город Москва, внутригородская территория муниципальный округ Преображенское, Преображенская площадь, дом 12",37.7140,55.79438,5165,ПАО «Мобильные ТелеСистемы»
184,1031192287,185,1031192287,здание/сооружение,Государственное бюджетное учреждение города Москвы «Управление спортивными объектами» Департамента спорта города Москвы,да,Восточный административный округ,район Метрогородок,"Российская Федерация, город Москва, внутригородская территория муниципальный округ Перово, 1-я Владимирская улица, дом 10Б, строение 3",37.771660,55.758833,0,0
185,1031192288,186,1031192288,здание/сооружение,Государственное бюджетное учреждение города Москвы «Управление спортивными объектами» Департамента спорта города Москвы,да,Восточный административный округ,район Метрогородок,"Российская Федерация, город Москва, внутригородская территория муниципальный округ Косино-Ухтомский, Лухмановская улица, дом 10А",37.900470,55.716002,0,0
186,1031192289,187,1031192289,здание/сооружение,Государственное бюджетное учреждение города Москвы «Управление спортивными объектами» Департамента спорта города Москвы,да,Восточный административный округ,район Восточное Измайлово,"Российская Федерация, город Москва, внутригородская территория муниципальный округ Новогиреево, Фрязевская улица, дом 13А",37.826017,55.746821,0,0
187,1031192290,188,1031192290,здание/сооружение,Государственное бюджетное учреждение здравоохранения города Москвы «Детская городская поликлиника № 28 Департамента здравоохранения города Москвы»,да,Восточный административный округ,район Северное Измайлово,"Российская Федерация, город Москва, внутригородская территория муниципальный округ Богородское, бульвар Маршала Рокоссовского, дом 35, строение 1",37.7131,55.8169,6700,ПАО «МегаФон»
188,1031192291,189,1031192291,здание/сооружение,Государственное бюджетное учреждение города Москвы «Управление спортивными объектами» Департамента спорта города Москвы,да,Восточный административный округ,район Измайлово,"город Москва, 1-я Владимирская улица, дом 10Б, строение 2",37.771067,55.758620,0,0
189,1031192292,190,1031192292,здание/сооружение,Государственное бюджетное учреждение города Москвы «Управление спортивными объектами» Департамента спорта города Москвы,да,Восточный административный округ,район Богородское,"Российская Федерация, город Москва, внутригородская территория муниципальный округ Косино-Ухтомский, Большая Косинская улица, дом 5А",37.853632,55.712523,0,0
190,1031192293,191,1031192293,здание/сооружение,Государственное бюджетное учреждение города Москвы «Управление спортивными объектами» Департамента спорта города Москвы,да,Восточный административный округ,район Преображенское,"Российская Федерация, город Москва, внутригородская территория муниципальный округ Ивановское, улица Молостовых, дом 10А, строение 5",37.829799,55.759775,0,0
191,1031192294,192,1031192294,здание/сооружение,Государственное бюджетное учреждение города Москвы «Управление спортивными объектами» Департамента спорта города Москвы,да,Восточный административный округ,район Преображенское,"Российская Федерация, город Москва, внутригородская территория муниципальный округ Ивановское, улица Молостовых, дом 10Д",37.828515,55.759071,0,0
192,1031192295,193,1031192295,здание/сооружение,Государственное бюджетное учреждение города Москвы «Управление спортивными объектами» Департамента спорта города Москвы,да,Восточный административный округ,район Перово,"Российская Федерация, город Москва, внутригородская территория муниципальный округ Косино-Ухтомский, Салтыковская улица, дом 1В, строение 1",37.857207,55.727359,0,0
193,1031192296,194,1031192296,здание/сооружение,Государственное бюджетное учреждение города Москвы «Управление спортивными объектами» Департамента спорта города Москвы,да,Восточный административный округ,район Косино-Ухтомский,"город Москва, Лухмановская улица, дом 10А",37.900470,55.716002,1049,ПАО «Мобильные ТелеСистемы»
194,1031192297,195,1031192297,здание/сооружение,Государственное бюджетное учреждение города Москвы «Управление спортивными объектами» Департамента спорта города Москвы,да,Восточный административный округ,район Новогиреево,"город Москва, Фрязевская улица, дом 13А",37.826017,55.746821,MS6073,ООО «Т2 Мобайл»
195,1031192298,196,1031192298,здание/сооружение,Государственное бюджетное учреждение здравоохранения города Москвы «городская поликлиника № 64 Департамента здравоохранения города Москвы»,да,Восточный административный округ,район Богородское,"Российская Федерация, город Москва, внутригородская территория муниципальный округ Соколиная Гора, Малая Семёновская улица, дом 13, строение 2",37.713369,55.786004,MS2941,ООО «Т2 Мобайл»
196,1031192301,197,1031192301,здание/сооружение,Государственное бюджетное учреждение города Москвы «Управление спортивными объектами» Департамента спорта города Москвы,да,Восточный административный округ,район Ивановское,"город Москва, улица Молостовых, дом 10А, строение 5",37.829799,55.759775,7856,ПАО «ВымпелКом»
197,1031192302,198,1031192302,здание/сооружение,Государственное бюджетное учреждение города Москвы «Управление спортивными объектами» Департамента спорта города Москвы,да,Восточный административный округ,район Ивановское,"город Москва, улица Молостовых, дом 10Д",37.828515,55.759071,6419,ПАО «Мобильные ТелеСистемы»
198,1031192304,199,1031192304,здание/сооружение,Государственное автономное учреждение культуры города Москвы «Парк культуры и отдыха «Сокольники»,да,Восточный административный округ,район Косино-Ухтомский,"Российская Федерация, город Москва, внутригородская территория муниципальный округ Сокольники, проезд Сокольнического Круга, дом 9",37.679044,55.794239,MS3643,ООО «Т2 Мобайл»
199,1031192305,200,1031192305,здание/сооружение,Государственное автономное образовательное учреждение высшего образования города Москвы «Московский городской педагогический университет»,да,Восточный административный округ,район Соколиная Гора,"Российская Федерация, город Москва, внутригородская территория муниципальный округ Косино-Ухтомский, Святоозерская улица, дом 30",37.895100,55.711800,7992,ПАО «ВымпелКом»
200,1031192306,201,1031192306,здание/сооружение,Государственное бюджетное учреждение здравоохранения города Москвы «Психиатрическая клиническая больница № 4 имени П.Б.Ганнушкина Департамента здравоохранения города Москвы»,да,Восточный административный округ,район Соколиная Гора,"Российская Федерация, город Москва, внутригородская территория муниципальный округ Сокольники, улица Матросская Тишина, дом 20, строение 5",37.699768,55.791778,МС0832,ООО «Т2 Мобайл»
201,1031192307,202,1031192307,здание/сооружение,Государственное бюджетное учреждение здравоохранения города Москвы «городская поликлиника № 191 Департамента здравоохранения города Москвы»,да,Восточный административный округ,район Новокосино,"Российская Федерация, город Москва, внутригородская территория муниципальный округ Гольяново, Алтайская улица, дом 13",37.818229,55.820703,1516,ПАО «Мобильные ТелеСистемы»
202,1031192308,203,1031192308,здание/сооружение,Государственное бюджетное учреждение города Москвы «Центр физической культуры и спорта Восточного административного округа города Москвы» Департамента спорта города Москвы,да,Восточный административный округ,район Сокольники,"Российская Федерация, город Москва, внутригородская территория муниципальный округ Гольяново, Уральская улица, дом 19А",37.797276,55.821809,6797,ПАО «МегаФон»
203,1031192309,204,1031192309,здание/сооружение,Государственное бюджетное учреждение здравоохранения города Москвы «городская клиническая больница имени Е.О.Мухина Депаратмента здравоохранения города Москвы»,да,Восточный административный округ,район Косино-Ухтомский,"Российская Федерация, город Москва, внутригородская территория муниципальный округ Новогиреево, Федеративный проспект, дом 17, строение 19",37.814429,55.756280,459,ПАО «Мобильные ТелеСистемы»
204,1031192310,205,1031192310,здание/сооружение,Государственное бюджетное учреждение здравоохранения города Москвы «городская клиническая больница имени Е.О.Мухина Депаратмента здравоохранения города Москвы»,да,Восточный административный округ,район Косино-Ухтомский,"Российская Федерация, город Москва, внутригородская территория муниципальный округ Новогиреево, Федеративный проспект, дом 17",37.816363,55.756017,MS7088,ООО «Т2 Мобайл»
205,1031192311,206,1031192311,здание/сооружение,Государственное бюджетное учреждение здравоохранения города Москвы «Детская городская поликлиника № 28 Департамента здравоохранения города Москвы»,да,Восточный административный округ,район Сокольники,"Российская Федерация, город Москва, внутригородская территория муниципальный округ Преображенское, Халтуринская улица, дом 7А",37.727304,55.800131,6635,ПАО «МегаФон»
206,1031192313,207,1031192313,здание/сооружение,Государственное автономное учреждение здравоохранения города Москвы «Стоматологическая поликлиника № 67 Департамента здравоохранения города Москвы»,да,Восточный административный округ,район Косино-Ухтомский,"Российская Федерация, город Москва, внутригородская территория муниципальный округ Новокосино, Новокосинская улица, дом 24Б",37.863468,55.73912,15271,ПАО «ВымпелКом»
207,1031192314,208,1031192314,здание/сооружение,Государственное бюджетное учреждение здравоохранения города Москвы «городская клиническая больница имени Е.О.Мухина Депаратмента здравоохранения города Москвы»,да,Восточный административный округ,район Сокольники,"Российская Федерация, город Москва, внутригородская территория муниципальный округ Новогиреево, Федеративный проспект, дом 17, строение 19",37.81428,55.75619,544,ПАО «ВымпелКом»
208,1031192315,209,1031192315,здание/сооружение,Государственное бюджетное учреждение здравоохранения города Москвы «Детская городская поликлиника № 52 Департамента здравоохранения города Москвы»,да,Восточный административный округ,район Гольяново,"Российская Федерация, город Москва, внутригородская территория муниципальный округ Вешняки, Вешняковская улица, дом 23",37.833400,55.731000,389,ПАО «ВымпелКом»
209,1031192318,210,1031192318,здание/сооружение,Государственное бюджетное учреждение города Москвы «Спортивная школа «Битца» Департамента спорта города Москвы,да,Южный административный округ,район Братеево,"Российская Федерация, город Москва, внутригородская территория муниципальный округ Чертаново Северное, Балаклавский проспект, дом 33",37.583515,55.64196,10953,ПАО «ВымпелКом»
210,1031192319,211,1031192319,здание/сооружение,Государственное бюджетное учреждение здравоохранения города Москвы «Психиатрическая больница № 14 Департамента здравоохранения города Москвы»,да,Южный административный округ,Донской район,"Российская Федерация, город Москва, внутригородская территория муниципальный округ Царицыно, улица Бехтерева, дом 15, строение 3",37.65004,55.63244,MS1845,ООО «Т2 Мобайл»
211,1031192330,212,1031192330,здание/сооружение,Государственное бюджетное учреждение города Москвы «Жилищник района Царицыно»,да,Южный административный округ,Нагорный район,"Российская Федерация, город Москва, внутригородская территория муниципальный округ Царицыно, улица Бехтерева, дом 41, корпус 4",37.64912,55.61751,MS1908,ООО «Т2 Мобайл»
212,1031192331,213,1031192331,здание/сооружение,Государственное унитарное предприятие города Москвы «Мосгортранс» филиал «Южный»,да,Южный административный округ,район Зябликово,"Российская Федерация, город Москва, внутригородская территория муниципальный округ Орехово-Борисово Южное, Каширское шоссе, дом 67, строение 16",37.727759,55.598283,17799,ПАО «Мобильные ТелеСистемы»
213,1031192332,214,1031192332,здание/сооружение,Учреждение «Учебно-спортивный центр «Труд» Фонда имущества профсоюзов Москвы,да,Южный административный округ,Даниловский район,"Российская Федерация, город Москва, внутригородская территория муниципальный округ Донской, Варшавское шоссе, дом 14, строение 1",37.61978,55.696,MS0520,ООО «Т2 Мобайл»
214,1031192334,215,1031192334,здание/сооружение,Государственное бюджетное учреждение города Москвы «Спортивная школа «Битца» Департамента спорта города Москвы,да,Южный административный округ,район Чертаново Северное,"Российская Федерация, город Москва, внутригородская территория муниципальный округ Чертаново Северное, Балаклавский проспект, дом 33",37.582457,55.641437,1970,ПАО «МегаФон»
215,1031192336,216,1031192336,здание/сооружение,Государственное автономное учреждение города Москвы «Гормедтехника Департамента здравоохранения города Москвы»,да,Южный административный округ,район Царицыно,"Российская Федерация, город Москва, внутригородская территория муниципальный округ Даниловский, Дубининская улица, дом 98",37.632227,55.712589,5104,ПАО «Мобильные ТелеСистемы»
216,1031192344,217,1031192344,здание/сооружение,Государственное бюджетное учреждение здравоохранения города Москвы «Онкологический клинический диспансер № 1 Департамента здравоохранения города Москвы»,да,Южный административный округ,Даниловский район,"Российская Федерация, город Москва, внутригородская территория муниципальный округ Донской, Загородное шоссе, дом 18А, строение 8",37.601834,55.695454,17345,ПАО «Мобильные ТелеСистемы»
217,1031192346,218,1031192346,здание/сооружение,Государственное бюджетное учреждение здравоохранения города Москвы «Диагностический клинический центр № 1 Департамента здравоохранения города Москвы» Филиал № 4,да,Южный административный округ,район Орехово-Борисово Северное,"Российская Федерация, город Москва, внутригородская территория муниципальный округ Теплый Стан, улица Академика Бакулева, дом 18",37.477022,55.640919,MS3319,ООО «Т2 Мобайл»
218,1031192347,219,1031192347,здание/сооружение,Департамент городского имущества города Москвы,да,Южный административный округ,Даниловский район,"Российская Федерация, город Москва, внутригородская территория муниципальный округ Даниловский, Большая Тульская улица, дом 17",37.623183,55.707915,17358,ПАО «Мобильные ТелеСистемы»
219,1031192348,220,1031192348,здание/сооружение,Государственное бюджетное учреждение здравоохранения города Москвы «Научно-практический психоневрологический центр имени З.П.Соловьева Департамента здравоохранения города Москвы»,да,Южный административный округ,Донской район,"Российская Федерация, город Москва, внутригородская территория муниципальный округ Донской, Донская улица, дом 43, строение 5",37.607377,55.71623,6331,ПАО «МегаФон»
220,1031192349,221,1031192349,здание/сооружение,Государственное бюджетное учреждение города Москвы «Жилищник района Чертаново Центральное»,да,Южный административный округ,Донской район,"Российская Федерация, город Москва, внутригородская территория муниципальный округ Чертаново Центральное, Кировоградская улица, дом 20, корпус 3",37.605436,55.616941,4085,ПАО «Мобильные ТелеСистемы»
221,1031192350,222,1031192350,здание/сооружение,Государственное бюджетное учреждение здравоохранения города Москвы «Диагностический клинический центр № 1 Департамента здравоохранения города Москвы»,да,Южный административный округ,район Чертаново Северное,"Российская Федерация, город Москва, внутригородская территория муниципальный округ Коньково, улица Миклухо-Маклая, дом 29, корпус 2, строение 2",37.5185,55.64856,MS0527,ООО «Т2 Мобайл»
222,1031192351,223,1031192351,здание/сооружение,Государственное автономное образовательное учреждение высшего образования города Москвы «Московский государственный университет спорта и туризма»,да,Южный административный округ,Даниловский район,"Российская Федерация, город Москва, внутригородская территория муниципальный округ Чертаново Южное, Кировоградская улица, дом 21, корпус 1",37.601655,55.60212,386,ПАО «Мобильные ТелеСистемы»
223,1031192352,224,1031192352,здание/сооружение,Государственное бюджетное учреждение города Москвы «Автомобильные дороги Юго-Западного административного округа»,да,Южный административный округ,район Братеево,"Российская Федерация, город Москва, внутригородская территория муниципальный округ Черемушки, улица Намёткина, дом 10Г",37.549445,55.660972,MS5568,ООО «Т2 Мобайл»
224,1031192353,225,1031192353,здание/сооружение,Государственное бюджетное учреждение города Москвы «Управление спортивными объектами» Департамента спорта города Москвы,да,Южный административный округ,Даниловский район,"город Москва, Автозаводская улица, дом 23А, корпус 4",37.647334,55.701085,5312,ПАО «Мобильные ТелеСистемы»
225,1031192354,226,1031192354,здание/сооружение,Государственное бюджетное учреждение города Москвы «Жилищник района Братеево»,да,Южный административный округ,район Братеево,"Российская Федерация, город Москва, внутригородская территория муниципальный округ Братеево, Братеевская улица, дом 24, корпус 1",37.77128983,55.6363945,1092,ПАО «Мобильные ТелеСистемы»
226,1031192355,227,1031192355,здание/сооружение,Государственное бюджетное учреждение города Москвы «Управление спортивными объектами» Департамента спорта города Москвы,да,Южный административный округ,район Чертаново Центральное,"Российская Федерация, город Москва, внутригородская территория муниципальный округ Чертаново Центральное, улица Красного Маяка, дом 22Б",37.578020,55.609314,MS3238,ООО «Т2 Мобайл»
227,1031192356,228,1031192356,здание/сооружение,Государственное бюджетное учреждение города Москвы «Жилищник района Орехово-Борисово Южное»,да,Южный административный округ,район Орехово-Борисово Южное,"Российская Федерация, город Москва, внутригородская территория муниципальный округ Орехово-Борисово Южное, Каширское шоссе, дом 148, корпус 3",37.724678,55.595185,2302,ПАО «Мобильные ТелеСистемы»
228,1031192357,229,1031192357,здание/сооружение,Государственное бюджетное учреждение города Москвы «Жилищник района Братеево»,да,Южный административный округ,район Орехово-Борисово Северное,"Российская Федерация, город Москва, внутригородская территория муниципальный округ Братеево, Братеевская улица, дом 24, корпус 1",37.771919,55.63662,7543,ПАО «ВымпелКом»
229,1031192358,230,1031192358,здание/сооружение,Государственное бюджетное учреждение города Москвы «Жилищник района Коньково»,да,Южный административный округ,район Братеево,"Российская Федерация, город Москва, внутригородская территория муниципальный округ Коньково, Профсоюзная улица, дом 73",37.532771,55.648677,5222,ПАО «Мобильные ТелеСистемы»
230,1031192359,231,1031192359,здание/сооружение,Государственное унитарное предприятие города Москвы «Научно-производственное объединение «МОСГОРМАШ»,да,Южный административный округ,район Орехово-Борисово Южное,"Российская Федерация, город Москва, внутригородская территория муниципальный округ Нагатино-Садовники, Каширский проезд, дом 13",37.630800,55.656800,4269,ПАО «ВымпелКом»
231,1031192360,232,1031192360,здание/сооружение,Государственное бюджетное учреждение здравоохранения города Москвы «Детская городская поликлиника № 42 Департамента здравоохранения города Москвы»,да,Южный административный округ,район Нагатино-Садовники,"город Москва, Голубинская улица, дом 23, корпус 2",37.53248,55.59936,MS5428,ООО «Т2 Мобайл»
232,1031192362,233,1031192362,здание/сооружение,Государственное бюджетное учреждение здравоохранения города Москвы «городская поликлиника № 22 Департамента здравоохранения города Москвы» Филиал № 3,да,Южный административный округ,район Орехово-Борисово Южное,"Российская Федерация, город Москва, внутригородская территория муниципальный округ Академический, Большая Черёмушкинская улица, дом 6А",37.59433,55.68773,MS5339,ООО «Т2 Мобайл»
233,1031192363,234,1031192363,здание/сооружение,Государственное бюджетное учреждение города Москвы «Жилищник Даниловского района»,да,Южный административный округ,район Москворечье-Сабурово,"Российская Федерация, город Москва, внутригородская территория муниципальный округ Даниловский, 2-й Павелецкий проезд, дом 14",37.638683,55.71167,MS4790,ООО «Т2 Мобайл»
234,1031192365,235,1031192365,здание/сооружение,Государственное унитарное предприятие города Москвы «РЭМ»,да,Юго-Западный административный округ,район Тёплый Стан,"Российская Федерация, город Москва, внутригородская территория муниципальный округ Черемушки, Новочерёмушкинская улица, дом 53А",37.57012,55.67158,MS4438,ООО «Т2 Мобайл»
235,1031192366,236,1031192366,здание/сооружение,Государственное бюджетное учреждение здравоохранения города Москвы «городская поликлиника №134 Департамента здравоохранения города Москвы» Филиал № 1,да,Юго-Западный административный округ,Ломоносовский район,"Российская Федерация, город Москва, внутригородская территория муниципальный округ Ясенево, Тарусская улица, дом 6, корпус 1",37.53467,55.61065,MS3259,ООО «Т2 Мобайл»
236,1031192367,237,1031192367,здание/сооружение,Государственное бюджетное учреждение здравоохранения города Москвы «Диагностический клинический центр № 1 Департамента здравоохранения города Москвы» Филиал № 3,да,Юго-Западный административный округ,район Коньково,"Российская Федерация, город Москва, внутригородская территория муниципальный округ Зюзино, Азовская улица, дом 20, корпус 1",37.59785,55.65535,MS1264,ООО «Т2 Мобайл»
237,1031192368,238,1031192368,здание/сооружение,Государственное бюджетное учреждение здравоохранения города Москвы «городская поликлиника № 11 Департамента здравоохранения города Москвы» Филиал № 1,да,Юго-Западный административный округ,район Черёмушки,"Российская Федерация, город Москва, внутригородская территория муниципальный округ Обручевский, улица Архитектора Власова, дом 31",37.54483,55.67159,MS0482,ООО «Т2 Мобайл»
238,1031192369,239,1031192369,здание/сооружение,Государственное бюджетное учреждение здравоохранения города Москвы «Детская городская поликлиника № 10 Департамента здравоохранения города Москвы» Филиал № 4,да,Юго-Западный административный округ,Академический район,"Российская Федерация, город Москва, внутригородская территория муниципальный округ Черемушки, Профсоюзная улица, дом 52",37.5558,55.67252,MS3254,ООО «Т2 Мобайл»
239,1031192370,240,1031192370,здание/сооружение,Государственное бюджетное учреждение дополнительного образования города Москвы спортивная школа «Московская академия хоккея» Департамента спорта города Москвы,да,Юго-Западный административный округ,Ломоносовский район,"Российская Федерация, город Москва, внутригородская территория муниципальный округ Ясенево, Голубинская улица, дом 28, корпус 3",37.540243,55.593314,3482,ПАО «МегаФон»
240,1031192372,241,1031192372,здание/сооружение,Государственное бюджетное профессиональное образовательное учреждение города Москвы «Образовательный комплекс «Юго-запад»,да,Юго-Западный административный округ,район Коньково,"Российская Федерация, город Москва, внутригородская территория муниципальный округ Академический, улица Дмитрия Ульянова, дом 35, строение 2",37.5883,55.68448,MS5190,ООО «Т2 Мобайл»
241,1031192373,242,1031192373,здание/сооружение,Государственное бюджетное учреждение культуры города Москвы «Киноклуб-музей «Эльдар»,да,Юго-Западный административный округ,район Ясенево,"Российская Федерация, город Москва, внутригородская территория муниципальный округ Обручевский, Ленинский проспект, дом 105",37.513229,55.665143,3484,ПАО «МегаФон»
242,1031192374,243,1031192374,здание/сооружение,Государственное бюджетное учреждение здравоохранения города Москвы «Городская поликлиника № 22 Департамента здравоохранения города Москвы» Филиал № 3,да,Юго-Западный административный округ,Академический район,"Российская Федерация, город Москва, внутригородская территория муниципальный округ Академический, Большая Черёмушкинская улица, дом 6А",37.59433,55.68773,858,ПАО «Мобильные ТелеСистемы»
243,1031192375,244,1031192375,здание/сооружение,Государственное бюджетное учреждение здравоохранения города Москвы «Московский научно-практический центр дерматовенерологии и косметологии Департамента здравоохранения города Москвы»,да,Юго-Западный административный округ,район Черёмушки,"Российская Федерация, город Москва, внутригородская территория муниципальный округ Черемушки, улица Каховка, дом 37, корпус 2",37.56316,55.6579,3142,ПАО «МегаФон»
244,1031192376,245,1031192376,здание/сооружение,Государственное бюджетное учреждение города Москвы «Жилищник района Южное Бутово»,да,Юго-Западный административный округ,район Зюзино,"Российская Федерация, город Москва, внутригородская территория муниципальный округ Южное Бутово, улица Брусилова, дом 23",37.58825302,55.50085831,3779,ПАО «Мобильные ТелеСистемы»
245,1031192377,246,1031192377,здание/сооружение,Государственное бюджетное учреждение города Москвы «Жилищник района Южное Бутово»,да,Юго-Западный административный округ,Ломоносовский район,"Российская Федерация, город Москва, внутригородская территория муниципальный округ Южное Бутово, улица Брусилова, дом 35",37.59737396,55.50058746,2802,ПАО «Мобильные ТелеСистемы»
246,1031192378,247,1031192378,здание/сооружение,Государственное бюджетное учреждение города Москвы «Жилищник района Южное Бутово»,да,Юго-Западный административный округ,район Зюзино,"Российская Федерация, город Москва, внутригородская территория муниципальный округ Южное Бутово, улица Академика Семёнова, дом 19, строение 1",37.503712,55.54129,12179,ПАО «ВымпелКом»
247,1031192379,248,1031192379,здание/сооружение,Государственное бюджетное учреждение города Москвы «Жилищник района Южное Бутово»,да,Юго-Западный административный округ,Гагаринский район,"Российская Федерация, город Москва, внутригородская территория муниципальный округ Южное Бутово, Чечёрский проезд, дом 31",37.522686,55.529072,12180,ПАО «ВымпелКом»
248,1031192380,249,1031192380,здание/сооружение,Государственное бюджетное учреждение города Москвы «Жилищник района Южное Бутово»,да,Юго-Западный административный округ,район Южное Бутово,"Российская Федерация, город Москва, внутригородская территория муниципальный округ Южное Бутово, улица Брусилова, дом 35",37.596981,55.500526,7460,ПАО «ВымпелКом»
249,1031192391,250,1031192391,здание/сооружение,Государственное унитарное предприятие города Москвы «Дирекция строительства и эксплуатации объектов гаражного назначения города Москвы»,да,Юго-Западный административный округ,район Ясенево,"Российская Федерация, город Москва, внутригородская территория муниципальный округ Южное Бутово, Южнобутовская улица, дом 50, корпус 4",37.52349,55.540531,7591,ПАО «ВымпелКом»
250,1031192392,251,1031192392,здание/сооружение,Государственное бюджетное учреждение города Москвы «Жилищник района Южное Бутово»,да,Юго-Западный административный округ,район Черёмушки,"Российская Федерация, город Москва, внутригородская территория муниципальный округ Южное Бутово, Варшавское шоссе, дом 206",37.583671,55.537113,14838,ПАО «Мобильные ТелеСистемы»
251,1031192393,252,1031192393,здание/сооружение,Государственное бюджетное учреждение города Москвы «Управление спортивными объектами» Департамента спорта города Москвы,да,Юго-Западный административный округ,район Ясенево,"Российская Федерация, город Москва, внутригородская территория муниципальный округ Ясенево, улица Паустовского, дом 4А",37.536041,55.601869,5259,ПАО «Мобильные ТелеСистемы»
252,1031192395,253,1031192395,здание/сооружение,Государственное бюджетное учреждение города Москвы «Жилищник района Южное Бутово»,да,Юго-Западный административный округ,район Южное Бутово,"Российская Федерация, город Москва, внутригородская территория муниципальный округ Южное Бутово, улица Брусилова, дом 35",37.5974,55.500566,MS4138,ООО «Т2 Мобайл»
253,1031192396,254,1031192396,здание/сооружение,Государственное бюджетное учреждение города Москвы «Жилищник района Южное Бутово»,да,Юго-Западный административный округ,район Северное Бутово,"Российская Федерация, город Москва, внутригородская территория муниципальный округ Южное Бутово, Варшавское шоссе, дом 204",37.581972,55.537872,MS4830,ООО «Т2 Мобайл»
254,1031192397,255,1031192397,здание/сооружение,Государственное бюджетное учреждение города Москвы «Жилищник района Южное Бутово»,да,Юго-Западный административный округ,район Южное Бутово,"Российская Федерация, город Москва, внутригородская территория муниципальный округ Обручевский, улица Саморы Машела, дом 2, корпус 1",37.495186,55.648941,MS0464,ООО «Т2 Мобайл»
